~Version Information
 VERS. 2.0                             : CWLS Log ASCII Standard - Version 2.0
 WRAP. NO                              : One line per depth step
 PROG.                                 : SeisWare LAS Export
#
~Well Information
#MNEM.UNIT     DATA                    : DESCRIPTION
#----.----     ---------               : -----------------
 STRT.M         515.1120               : Start Depth
 STOP.M        2577.3888               : End Depth
 STEP.M           0.1524               : Depth Increment
 NULL.          -999.250               : Null Value
 WELL.         ECA HZ 102 WEMBLEY 16-27-72-9        : Common Well Name
 UWI .         100162707209W600        : Unique Well ID
 FLD .         WEMBLEY                 : Field Name
 PROV.         ALTA                    : Province / State
#
~Parameter Information
#MNEM.UNIT     VALUE                   : DESCRIPTION
#----.----     ---------               : -----------------
 EREF.M         789.0000               : Elevation of Depth Reference
 DREF.         KB                      : Depth Reference
 EGL .M         782.6000               : Ground Level Elevation
 EKB .M         789.0000               : Kelly Bushing Elevation
#
~Other Information
# SeisWare LAS Export
#
~Curve Information
#MNEM.UNIT        API CODE             : CURVE DESCRIPTION
#----.----        ---------            : -----------------
 DEPT.M                                : Depth
 DTS_EXPORT_REV.us/m                             : 
 DT_EXPORT_REV.us/m                             : 
#
~A     DEPTDTS_EXPORT_REVDT_EXPORT_REV
# ...
  2282.3424    293.3069    158.9499
  2282.4948    298.9679    165.0092
  2282.6472    301.3195    165.8258
  2282.7996    302.5840    164.3982
  2282.9520    299.1082    162.8571
  2283.1044    289.7661    161.0503
  2283.2568    286.7166    157.1407
  2283.4092    285.4248    157.1992
  2283.5616    289.8102    161.4279
  2283.7140    295.1944    166.6328
  2283.8664    302.9337    170.8269
  2284.0188    308.8028    176.4485
  2284.1712    310.0973    178.9747
  2284.3236    309.1515    178.2590
  2284.4760    300.4860    175.4755
  2284.6284    295.5061    174.0375
  2284.7808    292.1992    170.2253
  2284.9332    288.0758    167.9698
  2285.0856    287.0054    167.6267
  2285.2380    284.4377    166.4815
  2285.3904    284.2449    166.0195
  2285.5428    281.8542    165.4392
  2285.6952    282.9170    164.5545
  2285.8476    285.6151    165.5834
  2286.0000    288.4216    166.4001
  2286.1524    294.5070    168.9617
  2286.3048    299.9782    170.7563
  2286.4572    304.9164    173.1299
  2286.6096    307.0602    173.4555
  2286.7620    306.4834    172.8309
  2286.9144    306.3260    169.2653
  2287.0668    305.8029    168.7821
  2287.2192    306.0640    168.2058
  2287.3716    302.5185    168.2090
  2287.5240    303.0084    169.4232
  2287.6764    301.3695    171.3919
  2287.8288    301.9078    174.4557
  2287.9812    302.9655    175.5582
  2288.1336    302.9615    174.3946
  2288.2860    300.7839    169.2771
  2288.4384    296.8411    167.7852
  2288.5908    292.2119    163.5648
  2288.7432    292.7980    161.6437
  2288.8956    292.6516    161.0873
  2289.0480    293.6341    163.3574
  2289.2004    292.3796    165.1087
  2289.3528    297.6255    168.1040
  2289.5052    299.9168    170.8107
  2289.6576    302.2142    172.1077
  2289.8100    306.6825    175.9308
  2289.9624    307.4850    176.6781
  2290.1148    307.6967    178.8888
  2290.2672    308.2678    182.0244
  2290.4196    307.4808    181.2147
  2290.5720    303.7898    179.0651
  2290.7244    300.5112    176.7786
  2290.8768    299.0189    176.5670
  2291.0292    298.4086    175.0390
  2291.1816    297.9957    174.3424
  2291.3340    296.4563    170.4140
  2291.4864    296.7286    168.3706
  2291.6388    297.8389    167.4641
  2291.7912    298.3797    165.9443
  2291.9436    298.5766    162.9373
  2292.0960    298.7854    162.8777
  2292.2484    298.1842    162.7805
  2292.4008    298.0539    163.0737
  2292.5532    296.9900    163.2219
  2292.7056    295.7453    162.7721
  2292.8580    294.1664    163.1294
  2293.0104    293.8654    162.8095
  2293.1628    294.6272    164.3501
  2293.3152    295.4616    166.3764
  2293.4676    297.1735    169.7060
  2293.6200    301.6624    173.0214
  2293.7724    303.0899    174.6498
  2293.9248    306.6999    176.4106
  2294.0772    308.6997    176.0262
  2294.2296    308.2156    175.0290
  2294.3820    308.0284    173.4730
  2294.5344    305.8344    171.6534
  2294.6868    304.7084    171.2298
  2294.8392    303.1510    172.4184
  2294.9916    303.0861    172.1207
  2295.1440    303.0906    172.8674
  2295.2964    303.0300    173.2145
  2295.4488    304.5377    173.5526
  2295.6012    304.7856    171.9776
  2295.7536    300.7681    169.7472
  2295.9060    297.3881    170.3046
  2296.0584    292.7717    169.3027
  2296.2108    288.5535    169.7571
  2296.3632    285.8076    168.7984
  2296.5156    283.1376    167.7054
  2296.6680    282.4167    168.7357
  2296.8204    281.6374    167.1119
  2296.9728    281.4390    167.6530
  2297.1252    281.4441    169.3612
  2297.2776    281.2118    169.3935
  2297.4300    281.9105    171.9440
  2297.5824    282.5460    172.1408
  2297.7348    282.5777    172.3309
  2297.8872    282.0063    173.4147
  2298.0396    280.6192    171.5985
  2298.1920    278.5544    169.2608
  2298.3444    277.8538    169.3839
  2298.4968    277.0516    168.7160
  2298.6492    274.6853    167.7968
  2298.8016    274.1657    167.5465
  2298.9540    272.0516    166.3437
  2299.1064    271.2788    164.5542
  2299.2588    271.6667    164.0050
  2299.4112    269.0398    163.3284
  2299.5636    267.9578    163.8481
  2299.7160    267.3618    162.0782
  2299.8684    268.7683    163.3024
  2300.0208    269.3002    163.8599
  2300.1732    270.5283    165.7896
  2300.3256    271.5598    167.2414
  2300.4780    271.8339    169.2623
  2300.6304    273.6627    170.4543
  2300.7828    277.5224    168.4916
  2300.9352    280.6349    170.7041
  2301.0876    283.8633    171.4458
  2301.2400    285.1895    171.0882
  2301.3924    285.9259    170.7192
  2301.5448    287.3916    171.4503
  2301.6972    289.0102    173.1859
  2301.8496    290.7752    174.9716
  2302.0020    296.6502    176.5332
  2302.1544    302.9503    179.7054
  2302.3068    314.4518    187.6272
  2302.4592    321.5177    192.5140
  2302.6116    323.2555    191.1626
  2302.7640    321.2116    187.2035
  2302.9164    316.1927    184.2103
  2303.0688    300.3175    173.7903
  2303.2212    288.8505    167.4059
  2303.3736    275.4627    157.4772
  2303.5260    275.8812    155.0354
  2303.6784    276.4956    156.9857
  2303.8308    277.3850    159.2968
  2303.9832    277.0237    160.9606
  2304.1356    274.4077    162.5347
  2304.2880    273.0843    166.5831
  2304.4404    272.4881    167.7012
  2304.5928    275.0777    172.5329
  2304.7452    279.4453    174.1255
  2304.8976    282.0207    174.3857
  2305.0500    284.1765    171.0523
  2305.2024    284.2710    167.5383
  2305.3548    284.6982    163.3972
  2305.5072    284.2005    165.5560
  2305.6596    283.8951    162.9483
  2305.8120    281.1119    160.0197
  2305.9644    282.4475    157.7621
  2306.1168    281.8155    161.7021
  2306.2692    277.3135    161.5478
  2306.4216    276.6554    163.6828
  2306.5740    276.4479    166.7691
  2306.7264    276.7144    168.4043
  2306.8788    280.4192    171.3027
  2307.0312    283.0804    173.2967
  2307.1836    288.6397    174.4334
  2307.3360    293.1614    176.0003
  2307.4884    295.1905    178.2921
  2307.6408    299.1902    179.3404
  2307.7932    301.1041    178.9204
  2307.9456    301.6467    179.9732
  2308.0980    302.2566    179.2101
  2308.2504    301.5685    179.0775
  2308.4028    303.8258    181.7660
  2308.5552    305.4262    181.9637
  2308.7076    305.1891    183.0672
  2308.8600    309.2292    184.5362
  2309.0124    312.4175    186.1960
  2309.1648    315.2715    187.2992
  2309.3172    317.3463    188.2501
  2309.4696    315.9240    187.3668
  2309.6220    315.9615    188.3419
  2309.7744    318.2888    189.1152
  2309.9268    320.7258    191.4032
  2310.0792    322.0818    190.6641
  2310.2316    319.5916    188.0668
  2310.3840    315.4876    186.2188
  2310.5364    312.0301    184.0566
  2310.6888    312.1143    180.8721
  2310.8412    309.0303    181.4059
  2310.9936    301.8962    177.2336
  2311.1460    302.6252    180.0132
  2311.2984    302.0586    178.2480
  2311.4508    300.5542    177.1085
  2311.6032    300.2411    178.4194
  2311.7556    301.5586    178.9476
  2311.9080    301.0762    182.0941
  2312.0604    300.1638    180.3479
  2312.2128    298.0367    176.6735
  2312.3652    297.9053    178.2640
  2312.5176    296.9820    178.6914
  2312.6700    293.5694    175.8557
  2312.8224    294.7669    176.6030
  2312.9748    296.1371    176.2482
  2313.1272    297.6382    176.8838
  2313.2796    298.3288    177.5784
  2313.4320    294.6186    176.7369
  2313.5844    294.5111    177.3197
  2313.7368    293.6840    177.8210
  2313.8892    296.1559    178.1226
  2314.0416    297.4827    179.0251
  2314.1940    298.7644    179.6034
  2314.3464    306.1946    179.4996
  2314.4988    308.5058    179.1162
  2314.6512    288.3869    176.4527
  2314.8036    296.8720    175.3137
  2314.9560    298.3723    176.4460
  2315.1084    301.5517    178.3848
  2315.2608    304.7701    180.6056
  2315.4132    306.4090    181.4415
  2315.5656    307.6726    181.1455
  2315.7180    309.6847    180.8846
  2315.8704    309.1000    184.1296
  2316.0228    310.5305    182.3993
  2316.1752    313.0410    187.8380
