~Version Information
 VERS. 2.0                             : CWLS Log ASCII Standard - Version 2.0
 WRAP. NO                              : One line per depth step
 PROG.                                 : SeisWare LAS Export
#
~Well Information
#MNEM.UNIT     DATA                    : DESCRIPTION
#----.----     ---------               : -----------------
 STRT.M         515.1120               : Start Depth
 STOP.M        2577.3888               : End Depth
 STEP.M           0.1524               : Depth Increment
 NULL.          -999.250               : Null Value
 WELL.         ECA HZ 102 WEMBLEY 16-27-72-9        : Common Well Name
 UWI .         100162707209W600        : Unique Well ID
 FLD .         WEMBLEY                 : Field Name
 PROV.         ALTA                    : Province / State
#
~Parameter Information
#MNEM.UNIT     VALUE                   : DESCRIPTION
#----.----     ---------               : -----------------
 EREF.M         789.0000               : Elevation of Depth Reference
 DREF.         KB                      : Depth Reference
 EGL .M         782.6000               : Ground Level Elevation
 EKB .M         789.0000               : Kelly Bushing Elevation
#
~Other Information
# SeisWare LAS Export
#
~Curve Information
#MNEM.UNIT        API CODE             : CURVE DESCRIPTION
#----.----        ---------            : -----------------
 DEPT.M                                : Depth
 DTS_EXPORT_REV.us/m                             : 
 DT_EXPORT_REV.us/m                             : 
#
~A     DEPTDTS_EXPORT_REVDT_EXPORT_REV
# ...
  1330.7568    591.4391    317.4509
  1330.9092    591.0579    318.6330
  1331.0616    590.6767    313.6667
  1331.2140    590.2955    312.8591
  1331.3664    589.9142    314.8828
  1331.5188    589.5330    314.4373
  1331.6712    589.1518    314.5098
  1331.8236    588.7706    315.0870
  1331.9760    588.3893    313.9733
  1332.1284    588.0081    315.4789
  1332.2808    587.6268    312.9855
  1332.4332    587.2456    312.9110
  1332.5856    586.8644    312.9138
  1332.7380    586.4832    313.1123
  1332.8904    586.1019    313.0331
  1333.0428    585.7207    313.7527
  1333.1952    585.3395    313.8745
  1333.3476    584.9583    314.0221
  1333.5000    584.5770    313.9539
  1333.6524    584.1958    314.0776
  1333.8048    583.8146    313.9291
  1333.9572    583.4333    313.9641
  1334.1096    583.0521    314.0773
  1334.2620    582.6709    292.6715
  1334.4144    582.2897    292.5879
  1334.5668    581.9084    292.6382
  1334.7192    581.5272    292.1332
  1334.8716    581.1460    291.9977
  1335.0240    580.7648    291.9572
  1335.1764    580.3835    291.8869
  1335.3288    580.0023    291.8286
  1335.4812    579.6211    291.8061
  1335.6336    579.2399    291.6113
  1335.7860    578.8586    291.5664
  1335.9384    578.4774    291.5511
  1336.0908    578.0962    291.9769
  1336.2432    577.7150    291.9809
  1336.3956    577.3337    298.1482
  1336.5480    576.9525    301.3007
  1336.7004    576.5713    308.8327
  1336.8528    576.1901    316.3065
  1337.0052    575.8088    316.8965
  1337.1576    575.4276    313.1433
  1337.3100    575.0464    317.5227
  1337.4624    574.6652    316.2370
  1337.6148    574.2839    317.1093
  1337.7672    573.9027    315.7652
  1337.9196    573.5215    316.6145
  1338.0720    573.1403    314.0801
  1338.2244    572.7590    314.1993
  1338.3768    572.3778    313.4728
  1338.5292    571.9966    312.8389
  1338.6816    571.6154    308.6298
  1338.8340    571.2341    306.7626
  1338.9864    570.8529    307.1406
  1339.1388    570.4717    308.1380
  1339.2912    570.0905    304.8789
  1339.4436    569.7092    308.3495
  1339.5960    569.3280    308.0854
  1339.7484    568.9467    309.1886
  1339.9008    568.5655    308.5689
  1340.0532    568.1843    310.4290
  1340.2056    567.8030    310.5813
  1340.3580    567.4218    304.6859
  1340.5104    567.0406    300.0042
  1340.6628    566.6594    301.8047
  1340.8152    566.2781    302.0068
  1340.9676    565.8969    303.0453
  1341.1200    565.5157    304.1118
  1341.2724    565.1345    317.5174
  1341.4248    564.7532    314.1175
  1341.5772    564.3720    314.2803
  1341.7296    563.9908    313.7256
  1341.8820    563.6096    311.4179
  1342.0344    563.2283    312.9958
  1342.1868    562.8471    314.9360
  1342.3392    562.4659    319.2110
  1342.4916    562.0847    319.6718
  1342.6440    561.7034    319.8890
  1342.7964    561.3222    320.8888
  1342.9488    560.9410    313.6431
  1343.1012    560.5598    309.1267
  1343.2536    560.1785    305.9787
  1343.4060    559.7973    304.4933
  1343.5584    559.4161    298.6015
  1343.7108    594.0450    296.6675
  1343.8632    597.4717    295.8495
  1344.0156    599.4849    296.6002
  1344.1680    587.9464    292.5743
  1344.3204    563.2558    289.5997
  1344.4728    562.9886    290.3780
  1344.6252    548.6751    283.3848
  1344.7776    565.1482    280.3300
  1344.9300    567.0534    287.5563
  1345.0824    568.9587    285.6614
  1345.2348    570.8639    292.0214
  1345.3872    572.7692    297.3904
  1345.5396    574.6744    302.6118
  1345.6920    576.5796    300.9523
  1345.8444    578.4849    301.8934
  1345.9968    580.3901    298.1193
  1346.1492    582.2953    302.3264
  1346.3016    584.2006    300.0332
  1346.4540    586.1058    302.9678
  1346.6064    588.0110    303.1920
  1346.7588    589.9163    303.2166
  1346.9112    591.8215    304.1454
  1347.0636    593.7267    307.4510
  1347.2160    595.6320    304.8469
  1347.3684    597.5372    304.2430
  1347.5208    587.6317    299.9001
  1347.6732    568.3942    302.4428
  1347.8256    572.5696    289.8840
  1347.9780    569.5378    284.5576
  1348.1304    565.4113    285.3352
  1348.2828    561.4275    284.5943
  1348.4352    544.9500    282.3136
  1348.5876    553.7374    278.9735
  1348.7400    557.4832    281.7647
  1348.8924    555.8724    284.2840
  1349.0448    550.3450    283.6198
  1349.1972    562.0736    285.2668
  1349.3496    582.3085    288.0890
  1349.5020    584.4072    293.3891
  1349.6544    587.5352    287.5594
  1349.8068    568.9061    290.2316
  1349.9592    565.4938    291.7498
  1350.1116    566.8859    288.5442
  1350.2640    561.7037    287.8127
  1350.4164    553.6333    285.2864
  1350.5688    553.5915    280.3572
  1350.7212    552.5470    282.0469
  1350.8736    553.1560    280.3068
  1351.0260    538.9263    286.8011
  1351.1784    550.4930    280.1281
  1351.3308    553.0300    284.4882
  1351.4832    565.4888    286.0295
  1351.6356    553.7700    282.6087
  1351.7880    551.6489    282.0896
  1351.9404    563.0608    281.7726
  1352.0928    565.7155    284.0154
  1352.2452    565.4366    285.1256
  1352.3976    590.5457    283.3813
  1352.5500    591.2648    288.5961
  1352.7024    598.9619    297.3873
  1352.8548    599.4979    299.0746
  1353.0072    600.0341    298.0714
  1353.1596    600.5702    301.4046
  1353.3120    601.1063    298.7084
  1353.4644    601.6424    301.2273
  1353.6168    600.7817    299.3382
  1353.7692    589.4204    299.8922
  1353.9216    588.9802    297.8475
  1354.0740    588.9603    297.1861
  1354.2264    582.9140    297.1861
  1354.3788    568.1497    291.0342
  1354.5312    566.3087    289.2480
  1354.6836    569.8041    289.1925
  1354.8360    568.4421    289.4879
  1354.9884    571.0392    289.4564
  1355.1408    570.3441    292.6146
  1355.2932    558.5375    285.9691
  1355.4456    546.8595    286.7068
  1355.5980    525.8201    283.5148
  1355.7504    532.6046    279.1539
  1355.9028    520.4944    278.0919
  1356.0552    519.5679    278.0516
  1356.2076    522.1552    277.4919
  1356.3600    529.1967    276.0057
  1356.5124    550.8540    278.4303
  1356.6648    552.4964    278.0823
  1356.8172    537.9752    276.9977
  1356.9696    537.8859    277.3018
  1357.1220    542.4169    277.8483
  1357.2744    533.7950    278.3415
  1357.4268    513.1749    280.5884
  1357.5792    542.7036    283.6523
  1357.7316    517.5891    280.5219
  1357.8840    533.5256    281.8297
  1358.0364    546.5735    281.9508
  1358.1888    553.2592    282.1137
  1358.3412    557.7604    282.4570
  1358.4936    564.3219    287.0123
  1358.6460    567.0515    286.2095
  1358.7984    579.7269    287.4493
  1358.9508    578.5096    291.4427
  1359.1032    571.4972    289.8026
  1359.2556    576.6887    290.4433
  1359.4080    574.1683    290.0845
  1359.5604    572.8196    288.8918
  1359.7128    578.1718    288.0038
  1359.8652    573.6004    287.7470
  1360.0176    573.1100    287.1817
  1360.1700    566.0998    285.6765
  1360.3224    567.0020    286.4742
  1360.4748    570.8294    288.2698
  1360.6272    576.5862    288.5598
  1360.7796    572.6644    288.7669
  1360.9320    581.8158    292.3189
  1361.0844    586.7968    294.0501
  1361.2368    588.7712    293.8561
  1361.3892    592.9685    292.3157
  1361.5416    581.0228    291.5543
  1361.6940    575.0801    291.8284
  1361.8464    570.5430    285.4439
  1361.9988    563.6771    285.7104
  1362.1512    557.1299    283.5566
  1362.3036    552.2062    284.8030
  1362.4560    555.0419    280.7027
  1362.6084    557.8514    282.7937
  1362.7608    557.2902    283.6953
  1362.9132    553.8750    285.0432
  1363.0656    557.0807    283.5862
  1363.2180    546.7048    283.7984
  1363.3704    540.2701    282.2472
  1363.5228    541.7039    279.3570
  1363.6752    541.0733    278.4561
  1363.8276    541.9966    278.8968
  1363.9800    541.6284    274.8788
  1364.1324    546.1884    278.8982
  1364.2848    549.0017    279.2207
  1364.4372    547.8740    280.9651
  1364.5896    559.6943    284.9280
