~Version Information
 VERS. 2.0                             : CWLS Log ASCII Standard - Version 2.0
 WRAP. NO                              : One line per depth step
 PROG.                                 : SeisWare LAS Export
#
~Well Information
#MNEM.UNIT     DATA                    : DESCRIPTION
#----.----     ---------               : -----------------
 STRT.M         515.1120               : Start Depth
 STOP.M        2577.3888               : End Depth
 STEP.M           0.1524               : Depth Increment
 NULL.          -999.250               : Null Value
 WELL.         ECA HZ 102 WEMBLEY 16-27-72-9        : Common Well Name
 UWI .         100162707209W600        : Unique Well ID
 FLD .         WEMBLEY                 : Field Name
 PROV.         ALTA                    : Province / State
#
~Parameter Information
#MNEM.UNIT     VALUE                   : DESCRIPTION
#----.----     ---------               : -----------------
 EREF.M         789.0000               : Elevation of Depth Reference
 DREF.         KB                      : Depth Reference
 EGL .M         782.6000               : Ground Level Elevation
 EKB .M         789.0000               : Kelly Bushing Elevation
#
~Other Information
# SeisWare LAS Export
#
~Curve Information
#MNEM.UNIT        API CODE             : CURVE DESCRIPTION
#----.----        ---------            : -----------------
 DEPT.M                                : Depth
 DTS_EXPORT_REV.us/m                             : 
 DT_EXPORT_REV.us/m                             : 
#
~A     DEPTDTS_EXPORT_REVDT_EXPORT_REV
# ...
  1602.6384    434.4928    241.4597
  1602.7908    430.6686    239.6570
  1602.9432    428.6143    236.7521
  1603.0956    425.1199    234.3552
  1603.2480    423.3415    235.7740
  1603.4004    421.6373    233.8558
  1603.5528    429.8167    233.7593
  1603.7052    432.5904    234.7838
  1603.8576    433.9937    238.1394
  1604.0100    442.9552    238.7658
  1604.1624    448.5542    239.8913
  1604.3148    456.3123    242.4422
  1604.4672    460.9388    245.9763
  1604.6196    458.7172    248.4150
  1604.7720    461.7091    249.1554
  1604.9244    460.1986    252.6637
  1605.0768    456.3464    252.1331
  1605.2292    447.9557    250.6360
  1605.3816    429.5638    246.2689
  1605.5340    405.1332    240.4543
  1605.6864    395.5721    231.1256
  1605.8388    379.5401    224.6501
  1605.9912    371.9008    221.7327
  1606.1436    377.3818    221.7760
  1606.2960    382.9433    222.8518
  1606.4484    382.9612    229.7681
  1606.6008    379.6846    233.4995
  1606.7532    375.3846    229.4149
  1606.9056    368.8178    231.1271
  1607.0580    372.9373    227.3912
  1607.2104    372.2876    227.1859
  1607.3628    397.8661    230.6314
  1607.5152    416.8893    237.3816
  1607.6676    422.5725    240.8371
  1607.8200    426.8915    240.9717
  1607.9724    430.1682    242.9946
  1608.1248    431.2668    244.3455
  1608.2772    431.2123    244.8474
  1608.4296    433.7293    246.8755
  1608.5820    436.2463    240.9213
  1608.7344    436.1155    238.0042
  1608.8868    436.9937    242.1929
  1609.0392    428.2579    236.8399
  1609.1916    424.8998    238.9394
  1609.3440    427.3672    236.7060
  1609.4964    422.5195    237.7424
  1609.6488    417.6718    233.9062
  1609.8012    412.9256    240.7080
  1609.9536    398.8232    240.1575
  1610.1060    397.6461    236.6602
  1610.2584    398.7959    240.3180
  1610.4108    399.2174    240.9995
  1610.5632    406.5559    242.2426
  1610.7156    412.7702    245.8190
  1610.8680    415.3706    248.5188
  1611.0204    417.8174    247.8905
  1611.1728    415.4216    245.5665
  1611.3252    403.9494    244.5907
  1611.4776    401.4180    245.3330
  1611.6300    404.3362    247.7964
  1611.7824    406.0750    248.5772
  1611.9348    407.5450    249.0771
  1612.0872    414.2885    245.5189
  1612.2396    430.0385    243.3536
  1612.3920    431.2725    245.1853
  1612.5444    434.7447    243.2713
  1612.6968    436.8939    241.2953
  1612.8492    443.3382    243.6198
  1613.0016    448.0009    241.7874
  1613.1540    457.7204    244.1665
  1613.3064    473.2973    249.5837
  1613.4588    483.7217    258.0777
  1613.6112    498.9945    261.6939
  1613.7636    514.6254    271.4312
  1613.9160    519.0170    276.2688
  1614.0684    523.2350    276.3990
  1614.2208    522.3096    275.8663
  1614.3732    514.8810    277.2173
  1614.5256    508.3102    272.6846
  1614.6780    497.0169    272.0997
  1614.8304    489.3727    270.6243
  1614.9828    487.3523    269.8110
  1615.1352    485.4504    268.2868
  1615.2876    476.0081    264.2777
  1615.4400    473.2669    261.9806
  1615.5924    468.0515    260.6629
  1615.7448    468.1472    260.6512
  1615.8972    468.8079    260.9527
  1616.0496    469.7270    258.8359
  1616.2020    474.1795    259.7903
  1616.3544    473.2862    256.3700
  1616.5068    474.7223    258.7461
  1616.6592    473.2776    260.1505
  1616.8116    466.9554    268.5117
  1616.9640    455.1212    262.3847
  1617.1164    444.0162    255.1895
  1617.2688    437.6655    248.4602
  1617.4212    424.7143    244.4482
  1617.5736    414.8814    241.5297
  1617.7260    408.6291    234.0676
  1617.8784    406.0324    233.9807
  1618.0308    405.5883    231.7261
  1618.1832    401.3832    230.4355
  1618.3356    403.0861    230.3307
  1618.4880    408.7040    231.4948
  1618.6404    409.5698    232.7324
  1618.7928    415.0272    235.3465
  1618.9452    420.3959    233.4508
  1619.0976    422.5821    233.3019
  1619.2500    430.0000    235.8937
  1619.4024    433.4214    232.9758
  1619.5548    434.4577    235.5569
  1619.7072    432.5984    238.7777
  1619.8596    427.9716    238.5657
  1620.0120    420.4612    229.9508
  1620.1644    417.9803    224.9658
  1620.3168    416.4719    224.6689
  1620.4692    419.3036    225.4704
  1620.6216    424.0212    225.5511
  1620.7740    430.6161    233.0975
  1620.9264    440.4857    240.7916
  1621.0788    444.6374    242.6523
  1621.2312    447.9376    242.7719
  1621.3836    453.0832    242.7584
  1621.5360    461.0767    244.6935
  1621.6884    466.1121    248.1203
  1621.8408    468.4645    249.3711
  1621.9932    468.2329    250.9288
  1622.1456    468.3269    251.9798
  1622.2980    471.5191    249.4007
  1622.4504    468.6104    252.3238
  1622.6028    469.7990    252.4975
  1622.7552    469.8088    256.4365
  1622.9076    466.7312    256.3686
  1623.0600    449.8663    250.4554
  1623.2124    431.2691    243.3670
  1623.3648    414.5151    238.4728
  1623.5172    398.1050    230.3234
  1623.6696    383.2652    223.6163
  1623.8220    379.1743    222.1779
  1623.9744    380.2800    222.7016
  1624.1268    387.3057    223.6339
  1624.2792    401.6168    226.0915
  1624.4316    406.6110    230.4541
  1624.5840    404.4526    229.4701
  1624.7364    413.7216    233.6152
  1624.8888    422.8634    233.2018
  1625.0412    431.7191    240.1333
  1625.1936    445.8984    245.2776
  1625.3460    456.7932    246.9350
  1625.4984    464.5662    249.3722
  1625.6508    466.1353    251.8818
  1625.8032    457.7565    254.0868
  1625.9556    446.4971    250.8802
  1626.1080    427.9725    246.2616
  1626.2604    411.6295    238.2103
  1626.4128    401.0921    231.9218
  1626.5652    394.7881    226.8511
  1626.7176    388.8008    226.6519
  1626.8700    386.2696    222.7858
  1627.0224    386.9583    226.6810
  1627.1748    384.2667    223.5227
  1627.3272    379.6984    219.1390
  1627.4796    377.7964    216.4418
  1627.6320    378.2307    209.4943
  1627.7844    363.8604    200.3183
  1627.9368    356.9261    191.3018
  1628.0892    367.8008    192.6765
  1628.2416    367.9074    192.2053
  1628.3940    366.4120    190.2017
  1628.5464    372.8517    195.5260
  1628.6988    382.6256    203.8193
  1628.8512    392.4953    210.6831
  1629.0036    406.0515    216.5466
  1629.1560    403.5520    221.4911
  1629.3084    409.3684    223.8622
  1629.4608    406.0724    224.8339
  1629.6132    409.6368    224.9946
  1629.7656    415.1286    226.3174
  1629.9180    418.3174    226.6443
  1630.0704    419.6468    228.0977
  1630.2228    422.3331    231.1451
  1630.3752    421.4880    232.5048
  1630.5276    419.4106    232.1289
  1630.6800    419.3943    231.5878
  1630.8324    418.2669    231.8931
  1630.9848    417.6785    228.7889
  1631.1372    420.5205    227.5939
  1631.2896    420.2188    228.1244
  1631.4420    422.0069    229.7165
  1631.5944    425.3614    230.1335
  1631.7468    429.1263    231.1110
  1631.8992    432.8981    232.0012
  1632.0516    439.2399    234.7741
  1632.2040    443.3952    237.9181
  1632.3564    446.0638    239.4330
  1632.5088    448.3303    241.3069
  1632.6612    446.4469    242.4147
  1632.8136    442.5089    242.7683
  1632.9660    439.7996    242.7265
  1633.1184    437.2823    238.3997
  1633.2708    436.6157    237.7431
  1633.4232    434.1280    237.9028
  1633.5756    432.8313    235.3129
  1633.7280    437.1561    235.9927
  1633.8804    435.0323    236.0018
  1634.0328    430.4041    236.9681
  1634.1852    432.6975    236.1915
  1634.3376    433.6000    235.7947
  1634.4900    431.1779    234.5772
  1634.6424    430.9301    240.0697
  1634.7948    435.7378    241.7882
  1634.9472    442.1190    244.5693
  1635.0996    444.7021    244.4702
  1635.2520    435.2896    246.2835
  1635.4044    427.2101    245.6647
  1635.5568    410.8491    243.7262
  1635.7092    407.9866    243.2112
  1635.8616    404.8553    241.5412
  1636.0140    403.3827    248.2593
  1636.1664    402.8449    251.8278
  1636.3188    404.4229    251.3443
  1636.4712    404.6865    249.2169
