~Version Information
 VERS. 2.0                             : CWLS Log ASCII Standard - Version 2.0
 WRAP. NO                              : One line per depth step
 PROG.                                 : SeisWare LAS Export
#
~Well Information
#MNEM.UNIT     DATA                    : DESCRIPTION
#----.----     ---------               : -----------------
 STRT.M         515.1120               : Start Depth
 STOP.M        2577.3888               : End Depth
 STEP.M           0.1524               : Depth Increment
 NULL.          -999.250               : Null Value
 WELL.         ECA HZ 102 WEMBLEY 16-27-72-9        : Common Well Name
 UWI .         100162707209W600        : Unique Well ID
 FLD .         WEMBLEY                 : Field Name
 PROV.         ALTA                    : Province / State
#
~Parameter Information
#MNEM.UNIT     VALUE                   : DESCRIPTION
#----.----     ---------               : -----------------
 EREF.M         789.0000               : Elevation of Depth Reference
 DREF.         KB                      : Depth Reference
 EGL .M         782.6000               : Ground Level Elevation
 EKB .M         789.0000               : Kelly Bushing Elevation
#
~Other Information
# SeisWare LAS Export
#
~Curve Information
#MNEM.UNIT        API CODE             : CURVE DESCRIPTION
#----.----        ---------            : -----------------
 DEPT.M                                : Depth
 DTS_EXPORT_REV.us/m                             : 
 DT_EXPORT_REV.us/m                             : 
#
~A     DEPTDTS_EXPORT_REVDT_EXPORT_REV
# ...
  2010.4608    373.2214    228.5114
  2010.6132    374.6456    227.9780
  2010.7656    374.1433    229.2862
  2010.9180    379.0135    229.6771
  2011.0704    377.9957    229.7829
  2011.2228    377.8379    228.8853
  2011.3752    378.9968    225.2803
  2011.5276    376.1784    226.0930
  2011.6800    376.5386    225.7152
  2011.8324    377.0795    220.7464
  2011.9848    374.3632    220.3088
  2012.1372    376.1046    223.7268
  2012.2896    379.0422    226.0749
  2012.4420    377.9079    229.6605
  2012.5944    380.8197    226.3512
  2012.7468    385.4671    228.3599
  2012.8992    391.4232    232.0167
  2013.0516    392.5023    230.2863
  2013.2040    393.1955    230.1857
  2013.3564    397.0551    229.2135
  2013.5088    398.1284    231.2562
  2013.6612    400.9029    226.6814
  2013.8136    403.3593    225.9106
  2013.9660    407.3369    227.6832
  2014.1184    409.7439    229.7355
  2014.2708    411.9193    233.2917
  2014.4232    416.5189    242.3384
  2014.5756    415.7069    245.2755
  2014.7280    401.0756    243.6221
  2014.8804    388.6009    239.2623
  2015.0328    377.0536    235.6254
  2015.1852    368.0997    224.9238
  2015.3376    357.0741    222.9391
  2015.4900    353.1508    219.7157
  2015.6424    353.6426    223.2921
  2015.7948    355.9419    224.8634
  2015.9472    361.2498    228.4142
  2016.0996    363.5001    232.4963
  2016.2520    363.5863    234.7684
  2016.4044    353.7972    235.9837
  2016.5568    361.9950    238.0369
  2016.7092    378.6388    241.3135
  2016.8616    359.6382    242.9659
  2017.0140    359.4728    244.6184
  2017.1664    356.4990    240.4613
  2017.3188    356.3685    234.9748
  2017.4712    357.0587    229.3468
  2017.6236    353.4543    228.9157
  2017.7760    372.8817    230.7553
  2017.9284    356.9402    228.4229
  2018.0808    366.0317    230.6129
  2018.2332    358.5851    236.5812
  2018.3856    357.6391    231.7357
  2018.5380    354.8106    229.4673
  2018.6904    357.9907    227.4640
  2018.8428    351.5958    226.2003
  2018.9952    352.2907    225.3251
  2019.1476    356.0249    223.8212
  2019.3000    352.0610    210.3422
  2019.4524    356.0038    228.3893
  2019.6048    360.8049    232.5649
  2019.7572    384.3028    237.9605
  2019.9096    368.0777    241.2789
  2020.0620    371.8837    240.0394
  2020.2144    366.4285    239.0006
  2020.3668    373.5756    243.3124
  2020.5192    366.1732    241.2789
  2020.6716    370.1731    244.6016
  2020.8240    371.3377    244.4222
  2020.9764    361.8787    244.1015
  2021.1288    361.0095    243.0966
  2021.2812    359.3565    239.3537
  2021.4336    360.6832    235.6108
  2021.5860    355.5151    234.4179
  2021.7384    363.2356    230.7449
  2021.8908    361.9971    226.5053
  2022.0432    361.8601    224.6080
  2022.1956    349.3979    226.0087
  2022.3480    349.5447    222.7051
  2022.5004    348.7400    223.8881
  2022.6528    345.6606    225.0914
  2022.8052    343.7502    227.7254
  2022.9576    348.5216    230.3595
  2023.1100    352.3245    229.1413
  2023.2624    349.7641    233.8393
  2023.4148    348.7354    232.6867
  2023.5672    349.3563    233.4758
  2023.7196    351.5233    227.8780
  2023.8720    349.9980    226.7073
  2024.0244    349.8861    227.3019
  2024.1768    347.0787    225.2352
  2024.3292    345.3947    222.6226
  2024.4816    336.1098    218.7520
  2024.6340    343.0427    216.2245
  2024.7864    338.5804    216.7004
  2024.9388    375.0046    221.3413
  2025.0912    349.7767    224.8023
  2025.2436    369.5129    234.0451
  2025.3960    363.7889    230.9404
  2025.5484    383.0478    235.5239
  2025.7008    384.8825    238.4494
  2025.8532    390.1158    234.4110
  2026.0056    391.5605    234.5300
  2026.1580    389.1589    232.5224
  2026.3104    384.7607    230.3355
  2026.4628    388.7811    227.4527
  2026.6152    395.9567    224.4251
  2026.7676    383.5582    225.2440
  2026.9200    390.5725    224.7301
  2027.0724    381.4808    228.4565
  2027.2248    379.2294    226.0398
  2027.3772    370.0901    220.5720
  2027.5296    368.2724    217.3334
  2027.6820    372.0874    218.2980
  2027.8344    368.3017    223.0014
  2027.9868    387.3401    231.2197
  2028.1392    390.8846    237.9444
  2028.2916    406.0534    237.3350
  2028.4440    398.3486    229.7124
  2028.5964    391.1407    226.1608
  2028.7488    390.0117    227.2234
  2028.9012    387.3630    228.4679
  2029.0536    386.2632    231.9153
  2029.2060    389.4381    233.0662
  2029.3584    393.1920    238.2380
  2029.5108    390.1379    238.7589
  2029.6632    387.3385    237.3756
  2029.8156    383.5934    238.2100
  2029.9680    382.6759    234.1252
  2030.1204    382.0390    233.3152
  2030.2728    381.6220    225.0017
  2030.4252    379.9217    222.7145
  2030.5776    379.1803    227.8438
  2030.7300    383.3997    218.8382
  2030.8824    392.9456    227.8276
  2031.0348    391.0713    225.4333
  2031.1872    385.9445    230.1006
  2031.3396    388.8803    223.9197
  2031.4920    400.8384    228.6642
  2031.6444    400.1370    229.8686
  2031.7968    398.8074    231.5565
  2031.9492    385.1563    231.1592
  2032.1016    383.2610    236.6068
  2032.2540    384.4658    235.0364
  2032.4064    385.4590    235.9315
  2032.5588    382.4618    232.7696
  2032.7112    383.2506    232.9167
  2032.8636    379.2723    230.5206
  2033.0160    378.9357    223.8779
  2033.1684    370.2359    217.4148
  2033.3208    371.8807    216.1533
  2033.4732    366.9059    213.4917
  2033.6256    363.9036    214.0439
  2033.7780    360.0110    214.3528
  2033.9304    364.2399    215.4631
  2034.0828    366.3193    217.0814
  2034.2352    382.4869    219.6596
  2034.3876    413.4739    241.2127
  2034.5400    416.5844    241.5000
  2034.6924    418.3274    241.3083
  2034.8448    422.5302    242.5754
  2034.9972    424.3071    244.5962
  2035.1496    422.1305    245.7902
  2035.3020    421.4480    243.9749
  2035.4544    436.6674    249.1006
  2035.6068    438.7936    248.0544
  2035.7592    441.7913    246.9428
  2035.9116    435.3225    246.9394
  2036.0640    434.1089    247.8354
  2036.2164    397.9608    237.4521
  2036.3688    374.1064    215.9377
  2036.5212    375.3550    207.8687
  2036.6736    377.2838    218.8513
  2036.8260    383.8989    211.3372
  2036.9784    379.6819    217.7497
  2037.1308    379.0062    224.5314
  2037.2832    386.2159    229.1149
  2037.4356    393.4366    234.1129
  2037.5880    409.2728    236.8147
  2037.7404    411.2130    246.5232
  2037.8928    415.6927    246.0914
  2038.0452    420.6548    245.8761
  2038.1976    425.0479    247.0296
  2038.3500    427.7098    246.5249
  2038.5024    434.1118    252.1953
  2038.6548    435.2099    250.6945
  2038.8072    434.9893    251.8038
  2038.9596    433.4440    250.8454
  2039.1120    420.6106    246.1245
  2039.2644    413.5397    247.0653
  2039.4168    406.7480    239.1077
  2039.5692    408.9251    233.8500
  2039.7216    404.9415    234.6676
  2039.8740    397.7197    230.7046
  2040.0264    381.3314    231.6858
  2040.1788    372.6082    225.7603
  2040.3312    371.1594    221.3918
  2040.4836    372.5302    223.4859
  2040.6360    369.0857    218.5483
  2040.7884    363.2836    217.3515
  2040.9408    368.1242    222.6303
  2041.0932    370.2158    219.1227
  2041.2456    370.0186    219.5215
  2041.3980    372.5312    223.6663
  2041.5504    377.7836    226.9738
  2041.7028    378.5601    225.6951
  2041.8552    381.3389    227.5834
  2042.0076    377.4155    226.1216
  2042.1600    375.6706    225.7777
  2042.3124    372.1099    223.4016
  2042.4648    375.7796    225.2081
  2042.6172    371.9098    221.7232
  2042.7696    374.6595    224.2627
  2042.9220    369.2435    225.5140
  2043.0744    369.8147    219.3849
  2043.2268    370.6309    221.2606
  2043.3792    369.2349    223.6974
  2043.5316    369.2227    224.0065
  2043.6840    371.4869    233.1555
  2043.8364    377.8866    234.6887
  2043.9888    382.5949    237.8251
  2044.1412    378.7628    230.1232
  2044.2936    372.1718    224.8735
