~Version Information
 VERS. 2.0                             : CWLS Log ASCII Standard - Version 2.0
 WRAP. NO                              : One line per depth step
 PROG.                                 : SeisWare LAS Export
#
~Well Information
#MNEM.UNIT     DATA                    : DESCRIPTION
#----.----     ---------               : -----------------
 STRT.M         515.1120               : Start Depth
 STOP.M        2577.3888               : End Depth
 STEP.M           0.1524               : Depth Increment
 NULL.          -999.250               : Null Value
 WELL.         ECA HZ 102 WEMBLEY 16-27-72-9        : Common Well Name
 UWI .         100162707209W600        : Unique Well ID
 FLD .         WEMBLEY                 : Field Name
 PROV.         ALTA                    : Province / State
#
~Parameter Information
#MNEM.UNIT     VALUE                   : DESCRIPTION
#----.----     ---------               : -----------------
 EREF.M         789.0000               : Elevation of Depth Reference
 DREF.         KB                      : Depth Reference
 EGL .M         782.6000               : Ground Level Elevation
 EKB .M         789.0000               : Kelly Bushing Elevation
#
~Other Information
# SeisWare LAS Export
#
~Curve Information
#MNEM.UNIT        API CODE             : CURVE DESCRIPTION
#----.----        ---------            : -----------------
 DEPT.M                                : Depth
 DTS_EXPORT_REV.us/m                             : 
 DT_EXPORT_REV.us/m                             : 
#
~A     DEPTDTS_EXPORT_REVDT_EXPORT_REV
# ...
  1466.6976    349.2382    217.8003
  1466.8500    349.8150    219.8153
  1467.0024    350.9401    219.6022
  1467.1548    351.4571    219.3094
  1467.3072    350.0768    220.6512
  1467.4596    353.4860    222.8245
  1467.6120    356.4822    227.0783
  1467.7644    359.5579    228.7595
  1467.9168    365.5125    230.3857
  1468.0692    372.2047    231.6813
  1468.2216    374.5867    232.5542
  1468.3740    376.2903    232.4317
  1468.5264    378.8156    231.2276
  1468.6788    379.0661    229.8442
  1468.8312    379.0891    230.3801
  1468.9836    379.1875    230.2636
  1469.1360    377.6633    230.8060
  1469.2884    374.7986    229.6249
  1469.4408    372.6405    229.7385
  1469.5932    372.2409    230.2190
  1469.7456    374.0608    231.5528
  1469.8980    376.7146    234.8778
  1470.0504    380.3607    236.2168
  1470.2028    385.7153    239.4690
  1470.3552    388.0852    240.4199
  1470.5076    388.9029    240.6248
  1470.6600    384.8808    240.7430
  1470.8124    385.0656    239.7657
  1470.9648    385.4923    240.4340
  1471.1172    386.9493    240.4925
  1471.2696    393.4815    241.3622
  1471.4220    392.6861    243.8188
  1471.5744    394.2325    246.4829
  1471.7268    396.5412    247.6171
  1471.8792    396.4546    247.3493
  1472.0316    393.3261    247.4236
  1472.1840    388.2670    246.2196
  1472.3364    388.6590    244.0682
  1472.4888    382.5169    242.4780
  1472.6412    380.2929    238.9053
  1472.7936    383.3207    236.8371
  1472.9460    385.7728    236.4962
  1473.0984    387.7612    237.2508
  1473.2508    388.4597    237.1136
  1473.4032    386.3700    237.1673
  1473.5556    384.4896    236.8013
  1473.7080    382.5161    236.3123
  1473.8604    379.7093    235.3376
  1474.0128    376.0584    232.8953
  1474.1652    374.2163    232.1461
  1474.3176    374.1747    231.8677
  1474.4700    373.2660    231.3343
  1474.6224    371.2504    231.5436
  1474.7748    371.4420    232.9390
  1474.9272    376.8369    232.0588
  1475.0796    380.7872    233.4573
  1475.2320    386.5169    237.6110
  1475.3844    391.5340    240.8869
  1475.5368    394.0617    242.7335
  1475.6892    397.5489    245.5085
  1475.8416    400.4152    247.7953
  1475.9940    400.8019    246.7975
  1476.1464    395.0034    246.4267
  1476.2988    389.4688    243.7731
  1476.4512    384.3441    239.6559
  1476.6036    379.8558    237.3763
  1476.7560    380.7932    236.3821
  1476.9084    381.0052    236.4407
  1477.0608    382.2019    237.8478
  1477.2132    387.9934    239.5386
  1477.3656    386.0442    239.0935
  1477.5180    391.1393    239.6374
  1477.6704    391.3578    238.9659
  1477.8228    390.7551    236.8734
  1477.9752    390.0906    235.8288
  1478.1276    385.6893    234.4815
  1478.2800    386.0927    236.9977
  1478.4324    388.5905    238.2486
  1478.5848    393.2231    238.3823
  1478.7372    398.1579    240.5679
  1478.8896    401.7114    241.6871
  1479.0420    400.5097    243.0505
  1479.1944    400.5340    244.0465
  1479.3468    406.4395    248.9895
  1479.4992    406.1363    251.6118
  1479.6516    413.3723    252.1006
  1479.8040    413.7108    252.0744
  1479.9564    412.8196    248.2916
  1480.1088    405.7850    241.0726
  1480.2612    401.3854    234.1817
  1480.4136    398.9742    229.9811
  1480.5660    394.9128    225.8822
  1480.7184    394.5271    227.7134
  1480.8708    393.4942    229.2546
  1481.0232    395.6295    233.3901
  1481.1756    398.4856    236.9968
  1481.3280    408.0294    240.6635
  1481.4804    410.5892    244.8800
  1481.6328    410.2632    241.4652
  1481.7852    409.4595    239.6242
  1481.9376    417.6764    241.5624
  1482.0900    419.5678    242.2855
  1482.2424    416.3719    242.2489
  1482.3948    426.1370    240.9735
  1482.5472    429.2922    245.9275
  1482.6996    440.4039    245.3202
  1482.8520    440.7436    247.5202
  1483.0044    439.2524    247.4023
  1483.1568    447.3876    251.3227
  1483.3092    453.3293    253.1141
  1483.4616    463.0983    256.3599
  1483.6140    464.9249    255.2125
  1483.7664    464.8426    253.8125
  1483.9188    468.2112    257.4063
  1484.0712    473.2122    257.7617
  1484.2236    475.5109    257.2645
  1484.3760    476.4715    259.7681
  1484.5284    483.8932    263.3099
  1484.6808    483.3714    261.3933
  1484.8332    494.9980    271.0254
  1484.9856    502.2847    272.7616
  1485.1380    501.7977    271.5904
  1485.2904    499.6239    271.2021
  1485.4428    500.5908    268.8244
  1485.5952    482.9511    263.1579
  1485.7476    480.5315    259.6158
  1485.9000    465.0535    258.9687
  1486.0524    472.6588    256.6149
  1486.2048    471.9458    255.5832
  1486.3572    472.1484    255.7015
  1486.5096    468.3004    258.0736
  1486.6620    475.9353    260.5423
  1486.8144    475.6088    261.3025
  1486.9668    485.9578    265.8912
  1487.1192    493.4415    266.7600
  1487.2716    496.3130    269.1719
  1487.4240    495.2637    268.2808
  1487.5764    496.5553    268.8746
  1487.7288    494.2344    267.7872
  1487.8812    493.4727    266.4989
  1488.0336    491.0852    266.0890
  1488.1860    492.4305    266.5227
  1488.3384    498.9208    269.0842
  1488.4908    512.6071    269.7320
  1488.6432    511.2013    268.5346
  1488.7956    508.2585    269.3596
  1488.9480    509.0551    268.6945
  1489.1004    511.6217    270.4836
  1489.2528    503.6389    270.7294
  1489.4052    497.0968    268.1754
  1489.5576    493.6368    267.0615
  1489.7100    491.9238    265.8565
  1489.8624    486.0550    260.1594
  1490.0148    470.5020    256.6021
  1490.1672    472.1604    257.5387
  1490.3196    469.6678    258.3625
  1490.4720    479.2569    260.7531
  1490.6244    486.3358    262.3075
  1490.7768    488.5766    263.7422
  1490.9292    513.1439    271.9544
  1491.0816    532.8338    278.5238
  1491.2340    546.1630    283.0092
  1491.3864    548.1627    287.0747
  1491.5388    557.5740    289.6549
  1491.6912    546.7289    288.8840
  1491.8436    534.2922    285.8357
  1491.9960    539.8224    284.1530
  1492.1484    535.5469    284.1860
  1492.3008    528.4705    282.9189
  1492.4532    526.8941    278.0059
  1492.6056    511.9563    277.0145
  1492.7580    502.3795    273.4140
  1492.9104    500.1606    272.9738
  1493.0628    493.5202    271.7697
  1493.2152    494.9920    269.2865
  1493.3676    494.0710    268.5371
  1493.5200    491.4933    267.4493
  1493.6724    483.3583    267.4159
  1493.8248    482.2375    265.1175
  1493.9772    487.8701    265.0047
  1494.1296    494.9050    265.7384
  1494.2820    494.2829    266.7575
  1494.4344    500.1279    268.1378
  1494.5868    499.8510    269.3503
  1494.7392    503.6890    270.0428
  1494.8916    501.3371    271.3212
  1495.0440    504.8878    271.5508
  1495.1964    504.7374    272.9362
  1495.3488    506.0660    273.2856
  1495.5012    507.3335    273.0043
  1495.6536    502.1876    272.9127
  1495.8060    502.2489    272.8842
  1495.9584    504.1375    272.6969
  1496.1108    498.5060    271.5244
  1496.2632    509.5203    270.9710
  1496.4156    495.1579    269.5936
  1496.5680    489.2502    268.0186
  1496.7204    492.9301    268.7141
  1496.8728    487.3555    268.1829
  1497.0252    486.2677    267.8257
  1497.1776    486.7946    268.3071
  1497.3300    483.8447    267.5063
  1497.4824    480.2538    267.0520
  1497.6348    479.0361    264.5495
  1497.7872    461.8878    256.4730
  1497.9396    449.7774    251.3749
  1498.0920    446.8436    248.3911
  1498.2444    444.5413    246.9861
  1498.3968    444.6103    250.5781
  1498.5492    451.7208    253.9805
  1498.7016    454.6892    256.0926
  1498.8540    464.2199    260.4016
  1499.0064    466.0000    259.8478
  1499.1588    465.9304    257.0160
  1499.3112    454.1104    253.2657
  1499.4636    453.1194    251.0062
  1499.6160    449.2103    250.8955
  1499.7684    447.0782    251.9891
  1499.9208    470.1547    254.6274
  1500.0732    476.4230    254.4184
  1500.2256    481.9879    257.2556
  1500.3780    487.5370    260.3629
  1500.5304    498.0065    265.4180
