~Version Information
 VERS. 2.0                             : CWLS Log ASCII Standard - Version 2.0
 WRAP. NO                              : One line per depth step
 PROG.                                 : SeisWare LAS Export
#
~Well Information
#MNEM.UNIT     DATA                    : DESCRIPTION
#----.----     ---------               : -----------------
 STRT.M         515.1120               : Start Depth
 STOP.M        2577.3888               : End Depth
 STEP.M           0.1524               : Depth Increment
 NULL.          -999.250               : Null Value
 WELL.         ECA HZ 102 WEMBLEY 16-27-72-9        : Common Well Name
 UWI .         100162707209W600        : Unique Well ID
 FLD .         WEMBLEY                 : Field Name
 PROV.         ALTA                    : Province / State
#
~Parameter Information
#MNEM.UNIT     VALUE                   : DESCRIPTION
#----.----     ---------               : -----------------
 EREF.M         789.0000               : Elevation of Depth Reference
 DREF.         KB                      : Depth Reference
 EGL .M         782.6000               : Ground Level Elevation
 EKB .M         789.0000               : Kelly Bushing Elevation
#
~Other Information
# SeisWare LAS Export
#
~Curve Information
#MNEM.UNIT        API CODE             : CURVE DESCRIPTION
#----.----        ---------            : -----------------
 DEPT.M                                : Depth
 DTS_EXPORT_REV.us/m                             : 
 DT_EXPORT_REV.us/m                             : 
#
~A     DEPTDTS_EXPORT_REVDT_EXPORT_REV
# ...
  1738.5792    358.9800    219.3229
  1738.7316    368.8334    225.2827
  1738.8840    377.6540    225.9849
  1739.0364    377.4728    229.0370
  1739.1888    381.7579    229.4212
  1739.3412    384.8828    228.7976
  1739.4936    383.6368    226.0393
  1739.6460    378.6430    224.4032
  1739.7984    378.6280    218.1595
  1739.9508    371.1079    211.9566
  1740.1032    367.7760    209.5651
  1740.2556    352.8298    204.7447
  1740.4080    351.7540    204.0575
  1740.5604    353.2576    206.8198
  1740.7128    362.1775    213.6626
  1740.8652    365.8439    217.8205
  1741.0176    371.3359    223.1495
  1741.1700    382.1820    224.8329
  1741.3224    385.6550    226.8173
  1741.4748    384.5113    226.5425
  1741.6272    384.6599    226.4924
  1741.7796    385.8264    226.5899
  1741.9320    390.3072    226.4265
  1742.0844    381.4455    226.5480
  1742.2368    378.1567    226.5898
  1742.3892    382.9105    224.1798
  1742.5416    377.6298    220.3066
  1742.6940    368.7822    216.2069
  1742.8464    363.8645    204.6818
  1742.9988    366.0755    200.1003
  1743.1512    365.6038    198.6007
  1743.3036    370.8723    202.0778
  1743.4560    383.3432    205.4930
  1743.6084    390.5560    216.8389
  1743.7608    404.1736    223.8412
  1743.9132    407.9818    227.3635
  1744.0656    410.4086    228.5862
  1744.2180    404.6056    226.0202
  1744.3704    406.8565    224.7480
  1744.5228    406.9826    224.0399
  1744.6752    407.0742    223.6051
  1744.8276    404.9646    225.1453
  1744.9800    404.9143    224.6161
  1745.1324    406.6172    224.0283
  1745.2848    403.3676    224.1386
  1745.4372    402.9660    223.1592
  1745.5896    403.8784    222.7736
  1745.7420    405.1677    222.8604
  1745.8944    404.1888    223.0174
  1746.0468    405.1293    222.8104
  1746.1992    407.4379    222.6491
  1746.3516    411.3158    221.3429
  1746.5040    416.1323    223.4091
  1746.6564    416.6948    226.4226
  1746.8088    420.5218    228.5610
  1746.9612    424.9640    230.5711
  1747.1136    424.2567    231.5575
  1747.2660    423.3666    233.1195
  1747.4184    422.7895    230.1478
  1747.5708    420.3742    231.4512
  1747.7232    422.0992    230.7289
  1747.8756    421.8275    231.3287
  1748.0280    423.0632    232.0022
  1748.1804    429.5749    236.3031
  1748.3328    430.8181    234.5638
  1748.4852    431.7971    232.8650
  1748.6376    428.6959    235.0412
  1748.7900    427.8674    233.1457
  1748.9424    428.1156    231.4725
  1749.0948    427.9807    233.5216
  1749.2472    426.5623    231.9433
  1749.3996    430.9339    233.4895
  1749.5520    432.4815    235.5628
  1749.7044    433.0718    236.4371
  1749.8568    435.6069    236.0594
  1750.0092    432.8688    234.7875
  1750.1616    429.1534    235.3781
  1750.3140    427.2400    235.4473
  1750.4664    419.8392    232.5920
  1750.6188    410.8088    230.4225
  1750.7712    416.8983    226.8778
  1750.9236    404.1754    225.3824
  1751.0760    402.7211    224.6322
  1751.2284    403.3155    220.2160
  1751.3808    402.3384    219.8492
  1751.5332    403.0289    221.1241
  1751.6856    398.9778    221.4030
  1751.8380    398.5864    224.3992
  1751.9904    403.4734    222.7597
  1752.1428    404.3969    225.5576
  1752.2952    402.7267    226.2766
  1752.4476    397.7776    232.8348
  1752.6000    397.7139    226.4465
  1752.7524    394.6136    225.2231
  1752.9048    392.6469    221.6882
  1753.0572    388.1870    226.0421
  1753.2096    389.4313    221.2628
  1753.3620    385.7360    220.7005
  1753.5144    386.5037    220.1714
  1753.6668    385.6175    220.5691
  1753.8192    383.8080    217.6461
  1753.9716    383.1991    217.7610
  1754.1240    382.1578    216.6620
  1754.2764    383.2716    216.4805
  1754.4288    383.5347    216.8450
  1754.5812    381.5226    217.3862
  1754.7336    386.0631    218.5354
  1754.8860    389.3544    221.2655
  1755.0384    398.2972    221.7979
  1755.1908    391.8015    222.7430
  1755.3432    385.3058    222.4096
  1755.4956    378.7711    222.6950
  1755.6480    376.9417    221.3883
  1755.8004    370.8391    219.5643
  1755.9528    382.2514    219.5719
  1756.1052    393.6637    219.8086
  1756.2576    393.7793    221.3075
  1756.4100    382.3187    220.2160
  1756.5624    378.8287    216.5950
  1756.7148    378.0776    213.8364
  1756.8672    377.7124    213.3736
  1757.0196    371.8824    212.3818
  1757.1720    369.2870    209.3098
  1757.3244    370.5790    205.1892
  1757.4768    375.9529    203.5582
  1757.6292    370.0839    207.6347
  1757.7816    373.5857    205.8632
  1757.9340    384.3335    210.1901
  1758.0864    393.3119    219.4250
  1758.2388    395.9448    223.2773
  1758.3912    400.8734    227.5085
  1758.5436    402.8439    226.3835
  1758.6960    398.7463    225.6281
  1758.8484    398.0088    223.5803
  1759.0008    397.5424    223.4113
  1759.1532    397.1823    221.6955
  1759.3056    402.8885    222.3544
  1759.4580    403.1006    219.9320
  1759.6104    401.8698    218.1829
  1759.7628    399.3253    217.8015
  1759.9152    403.5289    217.2659
  1760.0676    409.2892    218.3060
  1760.2200    411.9460    222.0677
  1760.3724    416.4518    225.1498
  1760.5248    421.2008    225.7872
  1760.6772    424.3326    227.6375
  1760.8296    422.7172    228.6799
  1760.9820    423.6222    229.2051
  1761.1344    424.6095    230.9997
  1761.2868    426.3509    232.3274
  1761.4392    424.1306    235.8373
  1761.5916    421.9104    237.5012
  1761.7440    413.6988    235.3829
  1761.8964    404.0673    232.0134
  1762.0488    395.4487    227.6356
  1762.2012    384.7494    223.4760
  1762.3536    382.2752    219.1906
  1762.5060    377.9210    214.4469
  1762.6584    380.0560    210.9018
  1762.8108    377.1240    209.0124
  1762.9632    371.6202    207.2392
  1763.1156    370.1544    206.1959
  1763.2680    370.7571    205.8400
  1763.4204    374.6445    206.2049
  1763.5728    378.5318    209.4642
  1763.7252    382.3328    211.6449
  1763.8776    386.8561    214.1247
  1764.0300    390.3055    216.2927
  1764.1824    393.7548    218.7096
  1764.3348    390.6887    218.8782
  1764.4872    394.9990    219.2682
  1764.6396    393.3414    219.0527
  1764.7920    394.6042    220.0436
  1764.9444    400.4998    220.0939
  1765.0968    402.0795    221.6649
  1765.2492    404.4177    223.8703
  1765.4016    406.2440    224.9263
  1765.5540    407.3929    225.1007
  1765.7064    405.0197    226.2064
  1765.8588    399.8641    223.8604
  1766.0112    394.9643    220.1084
  1766.1636    392.2442    218.5442
  1766.3160    390.6842    217.3310
  1766.4684    391.2897    216.8087
  1766.6208    391.3680    217.4804
  1766.7732    401.0322    219.2199
  1766.9256    401.3211    220.5733
  1767.0780    402.3932    220.4966
  1767.2304    406.3339    221.7157
  1767.3828    408.1104    223.7261
  1767.5352    409.9383    225.4929
  1767.6876    416.1731    226.3763
  1767.8400    415.7256    227.8156
  1767.9924    418.0808    229.2914
  1768.1448    420.2017    229.3897
  1768.2972    422.2639    229.9030
  1768.4496    422.6514    229.3229
  1768.6020    424.6394    231.1147
  1768.7544    427.5620    231.1508
  1768.9068    425.1183    231.3531
  1769.0592    424.8076    231.0705
  1769.2116    427.2119    231.6615
  1769.3640    428.3086    232.5979
  1769.5164    431.8946    233.8304
  1769.6688    436.4808    234.9548
  1769.8212    439.8249    235.5574
  1769.9736    444.6314    239.6908
  1770.1260    444.3275    237.2046
  1770.2784    443.6593    240.3837
  1770.4308    444.6963    242.1254
  1770.5832    444.1319    241.9118
  1770.7356    443.6767    244.8293
  1770.8880    439.3685    244.0540
  1771.0404    433.2782    242.0468
  1771.1928    424.2064    236.9684
  1771.3452    407.5988    227.1017
  1771.4976    389.4338    221.1082
  1771.6500    379.8650    207.6138
  1771.8024    367.3256    197.3513
  1771.9548    366.0797    193.8225
  1772.1072    368.6370    193.6135
  1772.2596    375.0634    198.1333
  1772.4120    384.9150    201.3668
