~Version Information
 VERS. 2.0                             : CWLS Log ASCII Standard - Version 2.0
 WRAP. NO                              : One line per depth step
 PROG.                                 : SeisWare LAS Export
#
~Well Information
#MNEM.UNIT     DATA                    : DESCRIPTION
#----.----     ---------               : -----------------
 STRT.M         515.1120               : Start Depth
 STOP.M        2577.3888               : End Depth
 STEP.M           0.1524               : Depth Increment
 NULL.          -999.250               : Null Value
 WELL.         ECA HZ 102 WEMBLEY 16-27-72-9        : Common Well Name
 UWI .         100162707209W600        : Unique Well ID
 FLD .         WEMBLEY                 : Field Name
 PROV.         ALTA                    : Province / State
#
~Parameter Information
#MNEM.UNIT     VALUE                   : DESCRIPTION
#----.----     ---------               : -----------------
 EREF.M         789.0000               : Elevation of Depth Reference
 DREF.         KB                      : Depth Reference
 EGL .M         782.6000               : Ground Level Elevation
 EKB .M         789.0000               : Kelly Bushing Elevation
#
~Other Information
# SeisWare LAS Export
#
~Curve Information
#MNEM.UNIT        API CODE             : CURVE DESCRIPTION
#----.----        ---------            : -----------------
 DEPT.M                                : Depth
 DTS_EXPORT_REV.us/m                             : 
 DT_EXPORT_REV.us/m                             : 
#
~A     DEPTDTS_EXPORT_REVDT_EXPORT_REV
# ...
  1058.8752    535.4507    279.9012
  1059.0276    540.8700    284.5058
  1059.1800    548.8804    284.4361
  1059.3324    540.8184    284.7756
  1059.4848    546.7671    284.6272
  1059.6372    527.1151    276.0294
  1059.7896    509.8064    264.8575
  1059.9420    490.0552    263.7674
  1060.0944    484.9280    262.6974
  1060.2468    493.6107    266.5764
  1060.3992    488.2659    269.8357
  1060.5516    493.8270    270.2796
  1060.7040    495.1962    269.9484
  1060.8564    495.3613    272.0930
  1061.0088    478.0387    265.2587
  1061.1612    468.8295    258.0665
  1061.3136    459.7454    258.1137
  1061.4660    457.5168    259.4557
  1061.6184    445.3386    252.2024
  1061.7708    444.1121    250.6986
  1061.9232    448.0164    250.0213
  1062.0756    450.3355    249.8458
  1062.2280    451.9326    250.0475
  1062.3804    448.7915    248.9873
  1062.5328    437.8122    247.7044
  1062.6852    451.3315    246.2649
  1062.8376    451.8798    247.1665
  1062.9900    447.9659    248.4639
  1063.1424    449.1108    249.4272
  1063.2948    488.1740    259.6867
  1063.4472    492.8503    261.9932
  1063.5996    502.7755    262.1278
  1063.7520    507.9796    267.2977
  1063.9044    530.9118    275.5032
  1064.0568    538.6026    276.4129
  1064.2092    534.4663    275.1201
  1064.3616    546.3721    270.8124
  1064.5140    538.8432    272.6427
  1064.6664    531.3143    287.9058
  1064.8188    523.7854    287.8044
  1064.9712    516.2565    287.6864
  1065.1236    508.7277    310.6706
  1065.2760    501.1988    310.4062
  1065.4284    496.5787    309.9936
  1065.5808    480.3755    306.3518
  1065.7332    457.5983    255.3862
  1065.8856    444.1730    249.3965
  1066.0380    441.1347    249.3462
  1066.1904    438.5977    249.2938
  1066.3428    451.6032    252.5718
  1066.4952    456.5291    256.2294
  1066.6476    472.7074    270.0337
  1066.8000    505.6012    270.0888
  1066.9524    501.0199    271.4310
  1067.1048    484.8586    274.1452
  1067.2572    468.6972    273.6909
  1067.4096    469.5466    273.9207
  1067.5620    480.3448    276.6039
  1067.7144    490.9577    275.8878
  1067.8668    490.7159    276.6249
  1068.0192    491.1073    274.2279
  1068.1716    491.8433    273.8994
  1068.3240    497.5965    266.7749
  1068.4764    503.3498    269.2972
  1068.6288    509.1030    272.7050
  1068.7812    514.8562    277.4842
  1068.9336    520.6094    285.1775
  1069.0860    499.6828    288.6642
  1069.2384    485.7155    293.1316
  1069.3908    481.0872    291.9636
  1069.5432    472.0467    281.7396
  1069.6956    468.2406    260.6233
  1069.8480    468.8816    257.4096
  1070.0004    464.8715    258.9181
  1070.1528    456.4911    255.1954
  1070.3052    455.4850    257.7282
  1070.4576    477.2784    266.2902
  1070.6100    481.1840    266.8493
  1070.7624    485.7136    266.7879
  1070.9148    481.5973    268.1201
  1071.0672    470.7898    264.9113
  1071.2196    457.8183    262.4414
  1071.3720    463.3255    258.4175
  1071.5244    462.2644    255.8875
  1071.6768    445.5052    251.1883
  1071.8292    442.4158    251.3033
  1071.9816    438.5265    249.2443
  1072.1340    446.5823    246.8628
  1072.2864    444.9074    246.4968
  1072.4388    452.7130    245.6004
  1072.5912    448.6039    245.4783
  1072.7436    450.2401    246.1107
  1072.8960    448.0407    246.4284
  1073.0484    454.2731    255.2868
  1073.2008    460.5388    259.6261
  1073.3532    481.8557    269.7200
  1073.5056    501.7026    274.6630
  1073.6580    514.1612    284.9565
  1073.8104    512.8907    287.5388
  1073.9628    523.0173    283.4586
  1074.1152    515.0218    285.0336
  1074.2676    483.8979    270.5333
  1074.4200    473.3832    262.7737
  1074.5724    471.4864    256.4971
  1074.7248    480.4576    256.3942
  1074.8772    493.7114    254.2210
  1075.0296    488.0115    256.9917
  1075.1820    494.2459    260.3805
  1075.3344    496.7148    259.3187
  1075.4868    504.7782    261.1679
  1075.6392    539.7728    280.5157
  1075.7916    538.2726    283.3189
  1075.9440    551.2700    285.1308
  1076.0964    557.1869    285.6461
  1076.2488    545.5965    287.4376
  1076.4012    549.2018    281.6234
  1076.5536    564.1623    281.7075
  1076.7060    553.0383    281.8656
  1076.8584    537.9056    290.2122
  1077.0108    546.2770    315.5967
  1077.1632    554.5585    315.5967
  1077.3156    555.2054    314.6671
  1077.4680    540.3735    309.7407
  1077.6204    546.4954    294.1863
  1077.7728    508.0204    274.5035
  1077.9252    500.7043    273.4036
  1078.0776    495.8517    272.0769
  1078.2300    470.5853    255.0290
  1078.3824    459.1258    256.7326
  1078.5348    455.3924    256.5028
  1078.6872    437.1875    256.0873
  1078.8396    443.8535    257.5739
  1078.9920    460.4982    265.6078
  1079.1444    460.9276    266.5667
  1079.2968    465.8885    266.7756
  1079.4492    479.1207    267.1842
  1079.6016    476.8336    264.7345
  1079.7540    465.3248    262.7559
  1079.9064    475.3163    263.3232
  1080.0588    481.5690    258.9898
  1080.2112    484.4375    254.0332
  1080.3636    498.3195    253.7890
  1080.5160    505.3897    256.9810
  1080.6684    515.2841    259.1286
  1080.8208    524.7069    264.4842
  1080.9732    553.7631    269.0312
  1081.1256    547.8002    280.5852
  1081.2780    551.1945    285.6233
  1081.4304    558.6589    292.1350
  1081.5828    556.2524    283.1000
  1081.7352    580.4285    285.6128
  1081.8876    580.9542    290.9163
  1082.0400    587.9728    287.2653
  1082.1924    586.4080    286.0932
  1082.3448    587.2900    285.4955
  1082.4972    579.0157    299.9751
  1082.6496    567.8479    287.9094
  1082.8020    552.9774    283.3727
  1082.9544    536.3855    276.1443
  1083.1068    485.4819    271.6481
  1083.2592    469.5126    264.9857
  1083.4116    458.2757    256.3622
  1083.5640    444.1404    257.8610
  1083.7164    442.9725    253.1193
  1083.8688    438.9408    251.6604
  1084.0212    454.1007    254.9438
  1084.1736    474.1247    258.3111
  1084.3260    476.0103    265.6023
  1084.4784    487.0574    268.0766
  1084.6308    479.4624    268.8310
  1084.7832    469.8479    271.8389
  1084.9356    455.1885    255.8785
  1085.0880    451.2495    254.8761
  1085.2404    438.4857    252.7557
  1085.3928    443.8898    254.6351
  1085.5452    445.7349    260.3969
  1085.6976    461.9242    261.0658
  1085.8500    462.4717    259.2739
  1086.0024    466.4622    261.1858
  1086.1548    451.9952    254.5387
  1086.3072    442.5146    248.7276
  1086.4596    440.6104    249.2619
  1086.6120    436.7109    251.0125
  1086.7644    444.8315    258.0120
  1086.9168    454.8024    263.2740
  1087.0692    465.3792    269.8057
  1087.2216    467.3229    270.3117
  1087.3740    469.3099    270.4057
  1087.5264    474.1833    268.3227
  1087.6788    472.5215    262.4265
  1087.8312    474.0770    261.5136
  1087.9836    477.1978    265.9624
  1088.1360    484.4880    266.1834
  1088.2884    495.7290    262.4901
  1088.4408    510.4250    280.5670
  1088.5932    509.3308    278.2041
  1088.7456    521.0375    278.4223
  1088.8980    534.6768    275.6791
  1089.0504    533.6672    271.0641
  1089.2028    532.0062    272.9318
  1089.3552    534.1924    272.8439
  1089.5076    535.7673    267.3451
  1089.6600    519.5129    275.1849
  1089.8124    492.7673    267.9104
  1089.9648    486.0808    266.7590
  1090.1172    476.6833    263.7982
  1090.2696    475.9506    261.0223
  1090.4220    471.4953    260.7121
  1090.5744    476.2392    268.0616
  1090.7268    487.9365    250.2388
  1090.8792    498.0288    266.9707
  1091.0316    513.6082    273.5620
  1091.1840    532.6306    275.2005
  1091.3364    529.2412    276.2679
  1091.4888    521.9738    275.6100
  1091.6412    509.2432    274.5694
  1091.7936    491.8514    273.5622
  1091.9460    469.9906    265.9470
  1092.0984    449.4781    261.5111
  1092.2508    439.2943    261.5523
  1092.4032    434.2517    260.7535
  1092.5556    435.0383    260.6039
  1092.7080    436.9319    258.8916
