~Version Information
 VERS. 2.0                             : CWLS Log ASCII Standard - Version 2.0
 WRAP. NO                              : One line per depth step
 PROG.                                 : SeisWare LAS Export
#
~Well Information
#MNEM.UNIT     DATA                    : DESCRIPTION
#----.----     ---------               : -----------------
 STRT.M         515.1120               : Start Depth
 STOP.M        2577.3888               : End Depth
 STEP.M           0.1524               : Depth Increment
 NULL.          -999.250               : Null Value
 WELL.         ECA HZ 102 WEMBLEY 16-27-72-9        : Common Well Name
 UWI .         100162707209W600        : Unique Well ID
 FLD .         WEMBLEY                 : Field Name
 PROV.         ALTA                    : Province / State
#
~Parameter Information
#MNEM.UNIT     VALUE                   : DESCRIPTION
#----.----     ---------               : -----------------
 EREF.M         789.0000               : Elevation of Depth Reference
 DREF.         KB                      : Depth Reference
 EGL .M         782.6000               : Ground Level Elevation
 EKB .M         789.0000               : Kelly Bushing Elevation
#
~Other Information
# SeisWare LAS Export
#
~Curve Information
#MNEM.UNIT        API CODE             : CURVE DESCRIPTION
#----.----        ---------            : -----------------
 DEPT.M                                : Depth
 DTS_EXPORT_REV.us/m                             : 
 DT_EXPORT_REV.us/m                             : 
#
~A     DEPTDTS_EXPORT_REVDT_EXPORT_REV
# ...
  2146.4016    357.0447    204.6664
  2146.5540    352.9647    203.2960
  2146.7064    350.6054    200.8689
  2146.8588    346.6557    195.6418
  2147.0112    344.9221    196.0405
  2147.1636    345.8315    197.4566
  2147.3160    353.9373    206.4482
  2147.4684    356.3791    207.1830
  2147.6208    360.8247    208.3019
  2147.7732    368.3863    208.1539
  2147.9256    376.1017    212.6666
  2148.0780    380.3758    215.1130
  2148.2304    381.5796    223.8616
  2148.3828    384.9466    229.2405
  2148.5352    394.1648    235.1244
  2148.6876    401.3969    239.4029
  2148.8400    411.2317    238.6473
  2148.9924    424.6707    246.2737
  2149.1448    430.1628    249.3622
  2149.2972    433.1969    252.4329
  2149.4496    431.4027    253.3855
  2149.6020    428.8866    252.7421
  2149.7544    425.2697    252.7748
  2149.9068    423.2460    249.4639
  2150.0592    421.2724    248.3907
  2150.2116    418.9478    245.3820
  2150.3640    407.7894    238.2990
  2150.5164    401.2639    235.8542
  2150.6688    388.3077    230.1171
  2150.8212    379.3943    221.4894
  2150.9736    376.3380    218.9471
  2151.1260    378.4500    218.1870
  2151.2784    381.8529    218.0352
  2151.4308    388.9072    220.5419
  2151.5832    394.9971    224.9338
  2151.7356    400.0488    225.7639
  2151.8880    398.3313    225.3195
  2152.0404    392.6830    214.1919
  2152.1928    389.9348    213.2139
  2152.3452    391.8244    219.3839
  2152.4976    393.1896    218.7996
  2152.6500    397.8098    218.4502
  2152.8024    406.6598    226.4208
  2152.9548    413.4874    232.0495
  2153.1072    423.6490    237.5863
  2153.2596    428.3528    240.3026
  2153.4120    430.8146    249.6146
  2153.5644    438.8447    253.5434
  2153.7168    447.3853    256.0809
  2153.8692    453.9828    256.1302
  2154.0216    455.4796    260.2567
  2154.1740    448.4040    254.1358
  2154.3264    436.4076    242.7612
  2154.4788    416.4546    230.4463
  2154.6312    400.8608    221.0303
  2154.7836    374.1376    211.2446
  2154.9360    367.5945    207.4479
  2155.0884    362.5235    209.0948
  2155.2408    368.9502    211.0200
  2155.3932    373.5395    213.9371
  2155.5456    379.0409    214.7935
  2155.6980    380.9914    216.3800
  2155.8504    384.0668    217.5426
  2156.0028    393.8464    222.9059
  2156.1552    396.0140    227.6685
  2156.3076    393.4473    230.7248
  2156.4600    392.0225    231.6278
  2156.6124    392.0332    232.2630
  2156.7648    391.2972    232.7647
  2156.9172    394.5623    230.7828
  2157.0696    405.7665    237.1310
  2157.2220    419.8314    242.1841
  2157.3744    425.5531    247.8040
  2157.5268    424.6455    248.1243
  2157.6792    418.6396    246.4024
  2157.8316    408.2516    241.5775
  2157.9840    390.6715    232.9165
  2158.1364    374.9772    221.7588
  2158.2888    365.1792    213.6231
  2158.4412    362.1718    212.4384
  2158.5936    365.8723    211.9870
  2158.7460    368.4101    214.4218
  2158.8984    370.6461    215.8820
  2159.0508    370.8262    217.4722
  2159.2032    369.8093    218.8353
  2159.3556    366.4301    217.4440
  2159.5080    365.9291    217.2818
  2159.6604    365.7812    217.8044
  2159.8128    363.6205    215.6434
  2159.9652    360.4026    213.0578
  2160.1176    359.9411    210.0849
  2160.2700    355.9488    207.7265
  2160.4224    357.3556    207.0224
  2160.5748    359.3869    207.4685
  2160.7272    362.0466    207.6188
  2160.8796    366.5118    209.1427
  2161.0320    364.9696    209.0154
  2161.1844    364.8361    207.4973
  2161.3368    363.9808    206.7080
  2161.4892    361.4503    205.5072
  2161.6416    358.5028    204.1443
  2161.7940    357.0048    203.9461
  2161.9464    357.5197    204.2405
  2162.0988    354.7659    205.9841
  2162.2512    354.0729    203.7311
  2162.4036    352.5438    202.2843
  2162.5560    352.5973    201.8408
  2162.7084    354.2975    199.7472
  2162.8608    352.3098    200.6447
  2163.0132    348.8301    198.8763
  2163.1656    345.4655    198.2662
  2163.3180    342.1368    197.1528
  2163.4704    345.0492    198.5703
  2163.6228    345.2275    199.0446
  2163.7752    344.3349    198.4913
  2163.9276    342.5370    200.9811
  2164.0800    337.8901    201.0061
  2164.2324    330.4885    197.0883
  2164.3848    323.6879    195.0977
  2164.5372    314.4457    189.1698
  2164.6896    308.4900    184.5984
  2164.8420    305.7854    182.5597
  2164.9944    304.4106    181.1709
  2165.1468    302.4137    180.7186
  2165.2992    300.0510    180.0623
  2165.4516    297.0247    178.8984
  2165.6040    294.0214    177.1692
  2165.7564    290.4521    174.9726
  2165.9088    288.9231    173.9330
  2166.0612    288.4275    171.9921
  2166.2136    287.3949    171.2534
  2166.3660    283.7201    170.9064
  2166.5184    285.3683    170.4600
  2166.6708    283.4616    171.7858
  2166.8232    283.4318    172.4161
  2166.9756    286.0308    173.7641
  2167.1280    292.9763    175.2122
  2167.2804    303.3763    181.1805
  2167.4328    310.2316    186.4197
  2167.5852    312.4708    186.0734
  2167.7376    311.9213    185.1197
  2167.8900    309.1673    183.5338
  2168.0424    305.2543    180.1868
  2168.1948    302.1184    178.0627
  2168.3472    298.0680    175.4511
  2168.4996    301.4032    178.5343
  2168.6520    308.2618    183.3334
  2168.8044    312.4467    186.2108
  2168.9568    315.0981    186.3153
  2169.1092    315.9059    185.9643
  2169.2616    315.4302    184.8874
  2169.4140    313.4761    182.9550
  2169.5664    310.8058    181.1522
  2169.7188    311.3850    182.5629
  2169.8712    314.1223    185.9020
  2170.0236    316.1643    186.4626
  2170.1760    317.5630    185.4962
  2170.3284    317.8296    184.1848
  2170.4808    316.5407    183.4231
  2170.6332    314.3891    181.9041
  2170.7856    311.1561    179.3793
  2170.9380    310.2536    178.7381
  2171.0904    309.9014    177.8145
  2171.2428    309.1260    178.4000
  2171.3952    308.8766    179.5377
  2171.5476    309.8625    177.2533
  2171.7000    307.4745    174.7875
  2171.8524    307.6892    174.4987
  2172.0048    308.0678    175.1953
  2172.1572    311.0612    177.0490
  2172.3096    315.3194    180.3638
  2172.4620    318.1573    186.7102
  2172.6144    319.8356    187.4211
  2172.7668    319.2510    186.9430
  2172.9192    313.6620    183.6032
  2173.0716    309.1978    181.4095
  2173.2240    306.4353    179.2046
  2173.3764    305.3317    177.6793
  2173.5288    307.5274    178.7390
  2173.6812    311.0928    181.5028
  2173.8336    312.0211    183.4652
  2173.9860    311.9641    183.3080
  2174.1384    309.8640    182.7415
  2174.2908    307.5826    182.4473
  2174.4432    308.3727    180.1531
  2174.5956    303.5886    178.1922
  2174.7480    302.0606    178.2672
  2174.9004    302.0849    177.8879
  2175.0528    304.1339    178.2243
  2175.2052    305.9870    178.9567
  2175.3576    307.3413    178.6901
  2175.5100    308.1853    178.6184
  2175.6624    308.7302    180.0386
  2175.8148    309.0173    180.8277
  2175.9672    308.7007    180.2935
  2176.1196    305.7470    179.5505
  2176.2720    301.4890    178.0403
  2176.4244    298.6426    176.6825
  2176.5768    293.5270    173.0025
  2176.7292    289.7614    172.0542
  2176.8816    286.7659    169.7119
  2177.0340    286.2206    168.4956
  2177.1864    285.7007    168.6141
  2177.3388    285.5438    168.8389
  2177.4912    286.8042    169.4746
  2177.6436    287.7346    170.1185
  2177.7960    290.5414    170.2023
  2177.9484    291.1550    170.7568
  2178.1008    292.5022    171.8343
  2178.2532    293.6472    171.3822
  2178.4056    294.7520    172.6367
  2178.5580    296.3017    173.4331
  2178.7104    297.8625    174.3928
  2178.8628    301.1916    175.6525
  2179.0152    304.2293    176.8580
  2179.1676    305.9873    179.6433
  2179.3200    308.8299    180.5032
  2179.4724    313.4896    182.4272
  2179.6248    314.7106    183.1796
  2179.7772    319.7119    185.5420
  2179.9296    322.2014    186.5376
  2180.0820    323.7930    187.6199
  2180.2344    327.0017    188.9383
