~Version Information
 VERS. 2.0                             : CWLS Log ASCII Standard - Version 2.0
 WRAP. NO                              : One line per depth step
 PROG.                                 : SeisWare LAS Export
#
~Well Information
#MNEM.UNIT     DATA                    : DESCRIPTION
#----.----     ---------               : -----------------
 STRT.M         515.1120               : Start Depth
 STOP.M        2577.3888               : End Depth
 STEP.M           0.1524               : Depth Increment
 NULL.          -999.250               : Null Value
 WELL.         ECA HZ 102 WEMBLEY 16-27-72-9        : Common Well Name
 UWI .         100162707209W600        : Unique Well ID
 FLD .         WEMBLEY                 : Field Name
 PROV.         ALTA                    : Province / State
#
~Parameter Information
#MNEM.UNIT     VALUE                   : DESCRIPTION
#----.----     ---------               : -----------------
 EREF.M         789.0000               : Elevation of Depth Reference
 DREF.         KB                      : Depth Reference
 EGL .M         782.6000               : Ground Level Elevation
 EKB .M         789.0000               : Kelly Bushing Elevation
#
~Other Information
# SeisWare LAS Export
#
~Curve Information
#MNEM.UNIT        API CODE             : CURVE DESCRIPTION
#----.----        ---------            : -----------------
 DEPT.M                                : Depth
 DTS_EXPORT_REV.us/m                             : 
 DT_EXPORT_REV.us/m                             : 
#
~A     DEPTDTS_EXPORT_REVDT_EXPORT_REV
# ...
  1194.8160    498.8750    260.3751
  1194.9684    504.9607    260.1229
  1195.1208    510.0515    265.2034
  1195.2732    510.5161    269.4556
  1195.4256    510.6078    269.9794
  1195.5780    529.5842    265.8364
  1195.7304    531.5315    275.3936
  1195.8828    542.4396    273.3329
  1196.0352    534.8643    274.2015
  1196.1876    533.3683    272.7580
  1196.3400    541.0827    275.7162
  1196.4924    531.4994    274.3805
  1196.6448    532.6065    272.0276
  1196.7972    530.2233    273.7529
  1196.9496    528.9220    275.1839
  1197.1020    535.2264    273.5458
  1197.2544    535.8889    274.9079
  1197.4068    537.3580    275.0736
  1197.5592    536.3257    270.7123
  1197.7116    533.7365    268.9700
  1197.8640    520.7490    269.4215
  1198.0164    529.2359    269.5342
  1198.1688    523.8953    267.3516
  1198.3212    526.9539    269.0912
  1198.4736    529.7371    268.4523
  1198.6260    529.0567    274.3598
  1198.7784    525.1891    269.1255
  1198.9308    521.9699    269.5012
  1199.0832    510.8847    269.7405
  1199.2356    511.3327    264.2090
  1199.3880    507.7825    265.6720
  1199.5404    515.9338    265.0532
  1199.6928    510.0805    264.9327
  1199.8452    521.5737    267.5216
  1199.9976    517.6028    268.2116
  1200.1500    522.1779    267.2227
  1200.3024    518.5186    268.3931
  1200.4548    526.8064    268.4597
  1200.6072    523.5380    270.3488
  1200.7596    519.3066    275.2741
  1200.9120    521.8397    275.2741
  1201.0644    523.4085    271.9796
  1201.2168    526.1183    272.2818
  1201.3692    526.1149    272.7808
  1201.5216    526.1190    268.6797
  1201.6740    516.8434    266.8489
  1201.8264    507.1859    264.8786
  1201.9788    508.9589    261.7948
  1202.1312    510.5861    266.5497
  1202.2836    512.9567    265.0146
  1202.4360    515.6638    265.3125
  1202.5884    521.7681    268.8686
  1202.7408    525.9836    268.2198
  1202.8932    520.9449    267.0894
  1203.0456    518.0510    267.9537
  1203.1980    516.5863    270.4120
  1203.3504    520.5416    267.1830
  1203.5028    518.2149    267.8556
  1203.6552    518.9022    269.2049
  1203.8076    523.2631    270.6533
  1203.9600    526.0910    269.3432
  1204.1124    524.3925    273.0887
  1204.2648    523.0449    272.9495
  1204.4172    523.5952    271.7242
  1204.5696    515.4005    269.9826
  1204.7220    509.7913    265.9713
  1204.8744    509.4175    264.9571
  1205.0268    508.6244    262.1550
  1205.1792    509.9666    264.3433
  1205.3316    507.9135    263.0024
  1205.4840    510.3156    263.1933
  1205.6364    511.7968    266.7393
  1205.7888    514.6165    269.1558
  1205.9412    511.9618    268.4461
  1206.0936    519.2330    268.1695
  1206.2460    519.8854    269.0997
  1206.3984    519.3361    268.4811
  1206.5508    521.4000    269.5447
  1206.7032    521.5395    268.9249
  1206.8556    519.4622    268.2362
  1207.0080    517.4669    267.0358
  1207.1604    522.8762    268.2152
  1207.3128    521.3306    267.0168
  1207.4652    524.8880    270.6251
  1207.6176    534.1047    274.4879
  1207.7700    542.8608    277.6840
  1207.9224    546.9086    279.0267
  1208.0748    549.9044    279.6729
  1208.2272    555.0416    282.1423
  1208.3796    553.2082    281.3379
  1208.5320    550.4891    281.2917
  1208.6844    546.5251    280.5922
  1208.8368    543.2686    281.0031
  1208.9892    538.6042    275.5448
  1209.1416    534.7445    271.8596
  1209.2940    530.8090    272.5648
  1209.4464    531.3708    275.3819
  1209.5988    533.9105    273.2353
  1209.7512    539.4608    273.9420
  1209.9036    542.0873    275.4033
  1210.0560    543.7052    275.0326
  1210.2084    546.4167    276.1303
  1210.3608    549.4614    274.8817
  1210.5132    562.5465    279.0926
  1210.6656    568.1010    281.0458
  1210.8180    577.2803    287.5488
  1210.9704    590.0419    298.1612
  1211.1228    595.4406    296.6981
  1211.2752    602.1887    299.5248
  1211.4276    604.4830    300.8056
  1211.5800    603.4078    296.8993
  1211.7324    600.6462    292.2171
  1211.8848    598.7380    295.8215
  1212.0372    591.1180    292.7698
  1212.1896    583.8483    291.0058
  1212.3420    583.0721    291.5032
  1212.4944    582.9266    291.5681
  1212.6468    586.8622    292.4888
  1212.7992    592.5995    289.5608
  1212.9516    596.9844    294.4645
  1213.1040    592.8572    296.7018
  1213.2564    595.4690    296.8407
  1213.4088    599.8389    296.8778
  1213.5612    596.7927    293.1417
  1213.7136    597.7637    293.7721
  1213.8660    596.2090    285.2895
  1214.0184    592.1893    288.3717
  1214.1708    591.1940    289.7227
  1214.3232    594.6463    292.2438
  1214.4756    593.4757    290.8956
  1214.6280    597.4034    292.1543
  1214.7804    601.7316    292.9005
  1214.9328    590.7665    295.0143
  1215.0852    590.5287    295.0091
  1215.2376    590.5203    293.1142
  1215.3900    585.1179    293.2810
  1215.5424    584.4689    291.9205
  1215.6948    584.0581    289.3518
  1215.8472    580.0651    287.6015
  1215.9996    574.1935    288.6521
  1216.1520    573.9934    288.0060
  1216.3044    575.1693    285.7759
  1216.4568    577.4112    290.5049
  1216.6092    586.5031    291.2340
  1216.7616    591.9217    293.7614
  1216.9140    595.2322    295.4525
  1217.0664    601.3475    295.9777
  1217.2188    604.7424    294.1570
  1217.3712    600.1709    296.5293
  1217.5236    594.2184    293.5895
  1217.6760    590.6370    292.8705
  1217.8284    587.0685    297.8859
  1217.9808    590.1431    298.4879
  1218.1332    585.6202    289.0346
  1218.2856    576.3735    288.8105
  1218.4380    576.2477    291.0570
  1218.5904    580.4437    291.2927
  1218.7428    578.9069    293.3306
  1218.8952    576.8036    292.8885
  1219.0476    582.8606    291.6844
  1219.2000    577.0702    291.4294
  1219.3524    574.4667    292.9076
  1219.5048    579.4899    293.3987
  1219.6572    577.6674    292.8421
  1219.8096    573.6582    294.5695
  1219.9620    577.7963    295.5918
  1220.1144    579.8560    290.8463
  1220.2668    584.8856    291.3904
  1220.4192    585.7617    290.3267
  1220.5716    583.1223    291.1976
  1220.7240    586.5031    289.7971
  1220.8764    583.4564    288.7569
  1221.0288    578.0594    293.4762
  1221.1812    566.8863    289.2955
  1221.3336    564.6085    288.3794
  1221.4860    563.5498    285.3448
  1221.6384    556.8842    281.5753
  1221.7908    561.6170    284.4922
  1221.9432    568.2323    290.0954
  1222.0956    570.8121    285.0375
  1222.2480    572.9386    288.9023
  1222.4004    576.0804    291.8627
  1222.5528    580.4247    289.2606
  1222.7052    578.9213    291.2272
  1222.8576    582.2905    290.5838
  1223.0100    582.4227    290.2071
  1223.1624    579.5416    288.8938
  1223.3148    580.7255    288.3094
  1223.4672    586.3535    286.3707
  1223.6196    584.6796    290.1505
  1223.7720    584.0881    289.2670
  1223.9244    586.5714    290.9864
  1224.0768    586.6109    290.1100
  1224.2292    592.7069    295.6378
  1224.3816    597.7159    296.2052
  1224.5340    594.3060    295.2365
  1224.6864    602.0245    293.4529
  1224.8388    603.1340    295.9351
  1224.9912    602.1212    293.4285
  1225.1436    604.8008    294.2682
  1225.2960    604.6362    294.4887
  1225.4484    604.4716    292.9342
  1225.6008    597.5416    291.3502
  1225.7532    591.3572    293.7770
  1225.9056    599.6254    292.1739
  1226.0580    604.8262    294.4190
  1226.2104    598.1300    291.2803
  1226.3628    597.9322    290.7327
  1226.5152    593.2833    294.1764
  1226.6676    583.5863    287.8766
  1226.8200    575.4659    289.0757
  1226.9724    576.2090    286.8831
  1227.1248    583.7524    292.2550
  1227.2772    590.3973    293.4270
  1227.4296    598.2990    294.9532
  1227.5820    600.8944    293.3333
  1227.7344    608.0743    293.6292
  1227.8868    604.8150    295.0613
  1228.0392    598.4653    292.1597
  1228.1916    592.1016    292.1912
  1228.3440    590.3682    291.2440
  1228.4964    589.6735    289.3430
  1228.6488    587.9157    290.0061
