~Version Information
 VERS. 2.0                             : CWLS Log ASCII Standard - Version 2.0
 WRAP. NO                              : One line per depth step
 PROG.                                 : SeisWare LAS Export
#
~Well Information
#MNEM.UNIT     DATA                    : DESCRIPTION
#----.----     ---------               : -----------------
 STRT.M         515.1120               : Start Depth
 STOP.M        2577.3888               : End Depth
 STEP.M           0.1524               : Depth Increment
 NULL.          -999.250               : Null Value
 WELL.         ECA HZ 102 WEMBLEY 16-27-72-9        : Common Well Name
 UWI .         100162707209W600        : Unique Well ID
 FLD .         WEMBLEY                 : Field Name
 PROV.         ALTA                    : Province / State
#
~Parameter Information
#MNEM.UNIT     VALUE                   : DESCRIPTION
#----.----     ---------               : -----------------
 EREF.M         789.0000               : Elevation of Depth Reference
 DREF.         KB                      : Depth Reference
 EGL .M         782.6000               : Ground Level Elevation
 EKB .M         789.0000               : Kelly Bushing Elevation
#
~Other Information
# SeisWare LAS Export
#
~Curve Information
#MNEM.UNIT        API CODE             : CURVE DESCRIPTION
#----.----        ---------            : -----------------
 DEPT.M                                : Depth
 DTS_EXPORT_REV.us/m                             : 
 DT_EXPORT_REV.us/m                             : 
#
~A     DEPTDTS_EXPORT_REVDT_EXPORT_REV
# ...
  1874.5200    457.6150    228.7612
  1874.6724    517.6429    227.9697
  1874.8248    572.0499    227.1782
  1874.9772    583.8073    226.3867
  1875.1296    578.5122    225.5952
  1875.2820    526.3282    245.5013
  1875.4344    499.1664    256.6855
  1875.5868    457.0064    251.1846
  1875.7392    441.6811    245.2665
  1875.8916    429.7643    243.4448
  1876.0440    410.7054    236.6989
  1876.1964    404.1947    226.1638
  1876.3488    394.2206    220.2662
  1876.5012    396.4608    214.9190
  1876.6536    392.7900    221.5776
  1876.8060    399.5107    227.1101
  1876.9584    416.5106    233.4438
  1877.1108    419.4586    239.4521
  1877.2632    415.6474    240.0212
  1877.4156    410.8033    234.7010
  1877.5680    382.1868    223.0107
  1877.7204    357.3655    216.4915
  1877.8728    346.1886    207.2176
  1878.0252    329.5432    202.9352
  1878.1776    326.3125    196.3313
  1878.3300    320.6243    190.2211
  1878.4824    327.1616    191.2489
  1878.6348    337.0119    191.5513
  1878.7872    334.9491    193.7164
  1878.9396    337.6053    194.7907
  1879.0920    344.6215    196.7826
  1879.2444    354.4742    198.9736
  1879.3968    358.7123    199.0462
  1879.5492    384.2069    213.5128
  1879.7016    446.6491    213.5128
  1879.8540    447.1447    233.2761
  1880.0064    588.9351    253.0393
  1880.1588    497.0539    272.8026
  1880.3112    530.6077    292.5658
  1880.4636    543.3954    298.2633
  1880.6160    530.6675    268.3725
  1880.7684    467.8488    238.4817
  1880.9208    395.4647    208.5909
  1881.0732    371.5188    213.1303
  1881.2256    345.2241    204.9678
  1881.3780    342.0703    200.3767
  1881.5304    337.9708    200.6440
  1881.6828    366.2731    201.6027
  1881.8352    369.8490    204.9265
  1881.9876    371.0088    207.3488
  1882.1400    382.8656    209.2961
  1882.2924    392.3006    214.5308
  1882.4448    399.5041    214.4006
  1882.5972    391.4639    227.6016
  1882.7496    403.8406    229.4795
  1882.9020    396.4414    225.9433
  1883.0544    389.5672    224.0310
  1883.2068    375.0759    222.5154
  1883.3592    373.1167    215.6506
  1883.5116    378.0698    214.9349
  1883.6640    382.2078    214.4138
  1883.8164    383.7846    216.4165
  1883.9688    392.5656    218.8385
  1884.1212    422.4260    219.1432
  1884.2736    397.1249    221.7006
  1884.4260    405.2351    226.8036
  1884.5784    421.3650    229.5032
  1884.7308    438.7444    246.2757
  1884.8832    452.3997    241.0646
  1885.0356    474.1007    257.1323
  1885.1880    476.1857    253.6439
  1885.3404    488.5843    243.4928
  1885.4928    494.1946    246.2626
  1885.6452    508.6739    255.9129
  1885.7976    521.9173    254.8557
  1885.9500    554.9963    298.2144
  1886.1024    571.9871    322.8659
  1886.2548    591.5010    326.5723
  1886.4072    587.6613    315.9957
  1886.5596    579.8450    315.4002
  1886.7120    552.6890    215.6858
  1886.8644    505.1786    230.3477
  1887.0168    490.6657    261.5956
  1887.1692    476.1528    252.6968
  1887.3216    474.2891    251.9126
  1887.4740    475.2426    245.9012
  1887.6264    476.1647    243.6015
  1887.7788    444.7138    227.6993
  1887.9312    443.8593    235.6076
  1888.0836    443.1643    231.2292
  1888.2360    445.4381    239.4540
  1888.3884    452.0936    242.2806
  1888.5408    423.2466    240.6406
  1888.6932    408.9508    236.5044
  1888.8456    396.9967    216.2875
  1888.9980    385.3863    215.6797
  1889.1504    381.4064    208.1683
  1889.3028    390.5281    201.2258
  1889.4552    436.0626    217.4197
  1889.6076    455.4695    242.6834
  1889.7600    462.9747    266.5085
  1889.9124    491.0353    262.9364
  1890.0648    500.0919    268.1577
  1890.2172    492.8422    275.0102
  1890.3696    481.5224    256.6096
  1890.5220    449.8050    245.6635
  1890.6744    434.9684    234.0737
  1890.8268    426.8282    227.9602
  1890.9792    428.8421    230.9992
  1891.1316    435.1175    231.4889
  1891.2840    451.8671    243.5281
  1891.4364    515.9124    255.5672
  1891.5888    607.1411    343.4796
  1891.7412    730.4308    324.2618
  1891.8936    755.2139    305.0440
  1892.0460    501.8700    285.8262
  1892.1984    437.6904    266.6085
  1892.3508    454.1562    247.3907
  1892.5032    433.4308    243.3590
  1892.6556    506.1103    254.7532
  1892.8080    446.2387    236.0414
  1892.9604    412.2016    244.1306
  1893.1128    374.5546    224.2596
  1893.2652    360.0016    213.9843
  1893.4176    354.1766    214.2402
  1893.5700    349.3306    211.7365
  1893.7224    344.8797    210.2697
  1893.8748    355.1700    206.1286
  1894.0272    363.4008    204.4980
  1894.1796    366.0722    205.8862
  1894.3320    360.3466    208.7650
  1894.4844    367.2052    209.7766
  1894.6368    372.7195    209.6154
  1894.7892    370.3124    213.6618
  1894.9416    364.8731    214.4167
  1895.0940    366.1270    210.3979
  1895.2464    374.0526    210.3447
  1895.3988    372.5304    211.1953
  1895.5512    376.1535    213.1789
  1895.7036    388.8269    212.5940
  1895.8560    396.8137    214.6971
  1896.0084    403.0450    218.0293
  1896.1608    419.1093    217.9808
  1896.3132    429.0786    234.5816
  1896.4656    451.3485    245.0233
  1896.6180    455.3180    247.1202
  1896.7704    459.2875    246.2989
  1896.9228    451.6878    245.4616
  1897.0752    440.4182    246.9445
  1897.2276    430.4362    242.5571
  1897.3800    424.8744    235.5746
  1897.5324    422.8250    238.5062
  1897.6848    425.0368    238.9342
  1897.8372    430.7326    237.3891
  1897.9896    439.7766    242.5924
  1898.1420    437.4506    248.0938
  1898.2944    437.6284    251.3333
  1898.4468    425.6945    247.1413
  1898.5992    414.1502    241.8431
  1898.7516    403.9979    239.2929
  1898.9040    399.6270    231.3960
  1899.0564    388.8241    221.3805
  1899.2088    383.5042    220.2020
  1899.3612    370.9637    219.4312
  1899.5136    368.2934    217.4942
  1899.6660    364.4606    215.3605
  1899.8184    356.6067    214.1624
  1899.9708    357.6167    213.1327
  1900.1232    355.0524    209.8592
  1900.2756    354.3279    207.3087
  1900.4280    352.9490    206.9443
  1900.5804    351.4051    206.7736
  1900.7328    351.4527    206.2045
  1900.8852    355.2345    204.1746
  1901.0376    355.6458    203.9459
  1901.1900    353.9729    206.8599
  1901.3424    354.1711    208.9894
  1901.4948    354.5533    209.5127
  1901.6472    354.8331    210.3328
  1901.7996    351.8658    211.5961
  1901.9520    351.7221    211.5576
  1902.1044    355.9687    202.9223
  1902.2568    350.4633    196.8534
  1902.4092    339.3093    197.6629
  1902.5616    338.4685    197.4762
  1902.7140    331.6017    195.3549
  1902.8664    328.9779    193.8035
  1903.0188    329.9838    193.8863
  1903.1712    324.4042    192.5469
  1903.3236    320.7143    189.2236
  1903.4760    320.1517    187.9795
  1903.6284    322.0602    189.2722
  1903.7808    323.5110    192.3037
  1903.9332    324.9619    194.6859
  1904.0856    328.8189    199.0042
  1904.2380    342.9092    201.4904
  1904.3904    354.6805    205.2814
  1904.5428    350.9857    207.4411
  1904.6952    347.0037    209.0753
  1904.8476    350.9507    211.0314
  1905.0000    352.6055    213.2691
  1905.1524    356.2794    214.7938
  1905.3048    359.2845    215.4955
  1905.4572    359.1388    217.1139
  1905.6096    359.5924    218.6511
  1905.7620    363.0946    218.6962
  1905.9144    360.3873    218.5299
  1906.0668    358.7324    218.9534
  1906.2192    357.7040    218.9305
  1906.3716    357.8036    218.2560
  1906.5240    363.7926    218.3395
  1906.6764    359.0301    218.7314
  1906.8288    356.2184    218.5630
  1906.9812    355.2418    218.5088
  1907.1336    360.7082    218.3544
  1907.2860    361.7469    219.1333
  1907.4384    362.6062    219.2184
  1907.5908    364.7487    220.9085
  1907.7432    364.0057    221.2287
  1907.8956    366.8232    221.0873
  1908.0480    362.6822    221.9588
  1908.2004    363.4806    220.5555
  1908.3528    357.2003    222.7071
