~Version Information
 VERS. 2.0                             : CWLS Log ASCII Standard - Version 2.0
 WRAP. NO                              : One line per depth step
 PROG.                                 : SeisWare LAS Export
#
~Well Information
#MNEM.UNIT     DATA                    : DESCRIPTION
#----.----     ---------               : -----------------
 STRT.M         515.1120               : Start Depth
 STOP.M        2577.3888               : End Depth
 STEP.M           0.1524               : Depth Increment
 NULL.          -999.250               : Null Value
 WELL.         ECA HZ 102 WEMBLEY 16-27-72-9        : Common Well Name
 UWI .         100162707209W600        : Unique Well ID
 FLD .         WEMBLEY                 : Field Name
 PROV.         ALTA                    : Province / State
#
~Parameter Information
#MNEM.UNIT     VALUE                   : DESCRIPTION
#----.----     ---------               : -----------------
 EREF.M         789.0000               : Elevation of Depth Reference
 DREF.         KB                      : Depth Reference
 EGL .M         782.6000               : Ground Level Elevation
 EKB .M         789.0000               : Kelly Bushing Elevation
#
~Other Information
# SeisWare LAS Export
#
~Curve Information
#MNEM.UNIT        API CODE             : CURVE DESCRIPTION
#----.----        ---------            : -----------------
 DEPT.M                                : Depth
 DTS_EXPORT_REV.us/m                             : 
 DT_EXPORT_REV.us/m                             : 
#
~A     DEPTDTS_EXPORT_REVDT_EXPORT_REV
# ...
   786.9936    584.9673    299.1738
   787.1460    588.0836    300.8478
   787.2984    586.7382    300.8615
   787.4508    588.4720    300.5814
   787.6032    587.6970    292.6175
   787.7556    580.1826    294.0990
   787.9080    576.5157    292.7202
   788.0604    561.9506    285.5306
   788.2128    554.3388    287.2269
   788.3652    560.7261    287.6601
   788.5176    558.7936    284.1023
   788.6700    552.6638    283.0591
   788.8224    561.4324    282.3392
   788.9748    555.7267    283.4231
   789.1272    562.9740    285.4081
   789.2796    564.4150    288.4612
   789.4320    564.6415    288.2413
   789.5844    551.4989    291.1308
   789.7368    569.0439    293.3098
   789.8892    567.7722    292.5552
   790.0416    559.0610    292.8834
   790.1940    568.6879    293.7148
   790.3464    551.9056    291.2516
   790.4988    552.6617    290.8595
   790.6512    548.9424    291.1080
   790.8036    551.1020    289.3965
   790.9560    553.3027    289.3632
   791.1084    553.7419    289.3588
   791.2608    554.7701    289.0306
   791.4132    560.5306    291.4942
   791.5656    559.0511    291.5011
   791.7180    563.9909    294.9971
   791.8704    570.9011    296.8850
   792.0228    569.4969    298.2562
   792.1752    576.8389    298.1051
   792.3276    577.1950    300.8463
   792.4800    577.8370    299.6210
   792.6324    577.7717    300.2567
   792.7848    579.7405    300.2159
   792.9372    583.8563    301.6745
   793.0896    585.7974    300.9379
   793.2420    580.6358    300.8780
   793.3944    576.5648    302.1619
   793.5468    592.6748    302.7720
   793.6992    589.3591    302.5058
   793.8516    589.6248    302.2838
   794.0040    593.2827    302.9455
   794.1564    584.3419    296.3825
   794.3088    580.1669    299.1131
   794.4612    578.1768    299.1397
   794.6136    586.0431    296.2005
   794.7660    584.9497    296.2581
   794.9184    585.3448    297.6020
   795.0708    575.0825    291.3448
   795.2232    578.6727    292.3770
   795.3756    583.8687    292.9028
   795.5280    586.9847    291.2544
   795.6804    574.7349    290.8329
   795.8328    584.1937    292.8567
   795.9852    572.9800    293.4047
   796.1376    563.4262    293.7453
   796.2900    551.3198    288.1620
   796.4424    553.1030    291.6490
   796.5948    553.6240    287.7460
   796.7472    556.2930    283.9705
   796.8996    560.9645    287.6404
   797.0520    553.7294    288.6808
   797.2044    553.8399    288.1439
   797.3568    562.3976    291.3634
   797.5092    563.7505    291.5636
   797.6616    563.4405    296.2453
   797.8140    567.8701    295.9550
   797.9664    579.1986    298.8736
   798.1188    577.1822    299.5591
   798.2712    579.8027    301.1254
   798.4236    584.2501    300.9008
   798.5760    588.3588    300.2133
   798.7284    589.5739    300.8381
   798.8808    582.9550    300.6500
   799.0332    582.2009    302.1476
   799.1856    575.0059    303.7976
   799.3380    577.4757    305.1890
   799.4904    576.1116    304.3536
   799.6428    579.4240    302.6014
   799.7952    589.1851    305.0682
   799.9476    623.5961    307.3334
   800.1000    616.5936    306.1053
   800.2524    597.3809    305.7965
   800.4048    589.3947    299.9151
   800.5572    570.7958    288.7231
   800.7096    548.3402    288.9017
   800.8620    538.3462    286.4705
   801.0144    534.3469    284.3719
   801.1668    535.4850    287.9413
   801.3192    539.7601    288.3076
   801.4716    548.8438    288.8749
   801.6240    558.9642    292.8515
   801.7764    573.0814    293.1880
   801.9288    571.4387    292.8458
   802.0812    574.4644    296.3178
   802.2336    580.7309    296.3224
   802.3860    576.6205    300.1263
   802.5384    584.7383    300.7052
   802.6908    593.3834    301.2890
   802.8432    587.4474    299.4853
   802.9956    570.9792    296.1234
   803.1480    571.2356    296.0869
   803.3004    576.3682    296.2913
   803.4528    570.2072    292.8137
   803.6052    580.3086    295.7731
   803.7576    577.8311    296.1083
   803.9100    579.4011    296.8423
   804.0624    578.9703    296.8324
   804.2148    576.9633    297.4636
   804.3672    581.6655    297.5905
   804.5196    585.7697    298.5352
   804.6720    577.3874    298.4737
   804.8244    583.9418    296.5194
   804.9768    579.4339    297.6558
   805.1292    570.3879    294.2924
   805.2816    571.8569    294.1267
   805.4340    575.6956    294.4890
   805.5864    575.4122    293.4766
   805.7388    588.7129    298.9771
   805.8912    585.7870    302.7958
   806.0436    591.1143    302.8741
   806.1960    596.0842    302.6452
   806.3484    596.6630    305.6952
   806.5008    601.3286    304.9933
   806.6532    599.7155    305.3445
   806.8056    598.8524    304.8534
   806.9580    586.2706    301.3377
   807.1104    587.5842    299.9964
   807.2628    588.4980    300.1262
   807.4152    591.8456    299.2226
   807.5676    595.7985    299.1760
   807.7200    587.7820    300.0611
   807.8724    589.8382    301.8356
   808.0248    591.4318    303.3409
   808.1772    597.5088    304.3020
   808.3296    600.8015    303.7647
   808.4820    591.6578    302.5255
   808.6344    588.0457    300.8710
   808.7868    582.0833    297.4806
   808.9392    582.6617    297.8423
   809.0916    580.2463    299.2953
   809.2440    583.0917    299.7181
   809.3964    588.2515    302.1062
   809.5488    590.1938    301.9446
   809.7012    587.1662    302.8492
   809.8536    582.8934    300.2426
   810.0060    585.9537    297.6429
   810.1584    580.0521    300.8365
   810.3108    580.2892    299.3387
   810.4632    571.9187    295.9993
   810.6156    564.3156    292.5587
   810.7680    562.8137    292.8460
   810.9204    578.2984    296.3918
   811.0728    579.0212    296.6997
   811.2252    582.0959    296.8232
   811.3776    584.4087    297.3376
   811.5300    587.5635    296.7156
   811.6824    573.2455    290.4236
   811.8348    569.6694    289.9176
   811.9872    569.0552    289.3685
   812.1396    563.9786    289.2444
   812.2920    570.1215    289.7413
   812.4444    567.6738    290.1106
   812.5968    570.0197    291.5235
   812.7492    569.8300    292.1451
   812.9016    562.6575    291.0235
   813.0540    560.0362    292.1293
   813.2064    565.5933    290.6736
   813.3588    562.2144    290.9034
   813.5112    569.8846    291.9845
   813.6636    572.2765    290.1656
   813.8160    558.2647    287.3786
   813.9684    555.8552    285.1265
   814.1208    550.0029    282.8212
   814.2732    552.7328    283.3188
   814.4256    546.2567    287.8162
   814.5780    544.2449    285.8733
   814.7304    550.9448    284.6153
   814.8828    551.4198    284.6106
   815.0352    554.8737    284.7828
   815.1876    560.1751    288.5261
   815.3400    556.9816    289.5384
   815.4924    564.8074    289.9536
   815.6448    560.1319    289.6174
   815.7972    532.6246    282.3995
   815.9496    534.1705    278.8535
   816.1020    525.4036    278.1613
   816.2544    527.8811    278.7736
   816.4068    529.3885    280.6483
   816.5592    553.9615    283.9941
   816.7116    560.4649    284.6674
   816.8640    571.9478    289.8431
   817.0164    570.3793    294.5508
   817.1688    574.4548    294.3979
   817.3212    570.9937    294.3319
   817.4736    584.6024    293.8489
   817.6260    574.0541    291.4328
   817.7784    581.1161    292.7337
   817.9308    579.6576    292.8157
   818.0832    582.5147    295.8020
   818.2356    582.6130    301.7694
   818.3880    582.6952    304.4157
   818.5404    590.9253    304.2323
   818.6928    592.7476    307.3922
   818.8452    594.8152    308.2274
   818.9976    591.9810    308.3411
   819.1500    596.0525    306.5817
   819.3024    600.9857    306.2202
   819.4548    599.2177    305.1269
   819.6072    576.2736    303.5422
   819.7596    592.3831    303.6132
   819.9120    589.7627    303.5987
   820.0644    586.0289    301.3080
   820.2168    591.8085    300.5458
   820.3692    590.2318    303.7769
   820.5216    600.2338    306.4686
   820.6740    591.4138    310.8171
   820.8264    592.3454    310.8430
