~Version Information
 VERS. 2.0                             : CWLS Log ASCII Standard - Version 2.0
 WRAP. NO                              : One line per depth step
 PROG.                                 : SeisWare LAS Export
#
~Well Information
#MNEM.UNIT     DATA                    : DESCRIPTION
#----.----     ---------               : -----------------
 STRT.M         515.1120               : Start Depth
 STOP.M        2577.3888               : End Depth
 STEP.M           0.1524               : Depth Increment
 NULL.          -999.250               : Null Value
 WELL.         ECA HZ 102 WEMBLEY 16-27-72-9        : Common Well Name
 UWI .         100162707209W600        : Unique Well ID
 FLD .         WEMBLEY                 : Field Name
 PROV.         ALTA                    : Province / State
#
~Parameter Information
#MNEM.UNIT     VALUE                   : DESCRIPTION
#----.----     ---------               : -----------------
 EREF.M         789.0000               : Elevation of Depth Reference
 DREF.         KB                      : Depth Reference
 EGL .M         782.6000               : Ground Level Elevation
 EKB .M         789.0000               : Kelly Bushing Elevation
#
~Other Information
# SeisWare LAS Export
#
~Curve Information
#MNEM.UNIT        API CODE             : CURVE DESCRIPTION
#----.----        ---------            : -----------------
 DEPT.M                                : Depth
 DTS_EXPORT_REV.us/m                             : 
 DT_EXPORT_REV.us/m                             : 
#
~A     DEPTDTS_EXPORT_REVDT_EXPORT_REV
# ...
   922.9344    504.8283    274.3786
   923.0868    502.7422    270.7027
   923.2392    501.0747    270.6938
   923.3916    488.6149    268.7618
   923.5440    474.4053    258.1394
   923.6964    470.1836    257.9999
   923.8488    468.5077    257.7856
   924.0012    458.7744    254.5695
   924.1536    452.4599    250.1703
   924.3060    450.1955    251.0125
   924.4584    447.8498    250.0957
   924.6108    448.4423    253.5430
   924.7632    454.6922    254.4834
   924.9156    457.3515    255.6909
   925.0680    461.0177    255.6716
   925.2204    457.2995    255.4351
   925.3728    460.3057    257.6689
   925.5252    464.2142    257.0948
   925.6776    465.1439    257.2050
   925.8300    460.5346    256.9707
   925.9824    461.4326    257.4724
   926.1348    460.9783    259.3723
   926.2872    460.8515    259.8432
   926.4396    457.0870    259.4124
   926.5920    460.0408    261.0844
   926.7444    465.8522    263.4183
   926.8968    470.4707    263.6216
   927.0492    474.4353    265.1132
   927.2016    479.7578    268.1355
   927.3540    476.7279    267.7169
   927.5064    481.1935    266.9862
   927.6588    481.8110    266.4658
   927.8112    480.1448    265.2271
   927.9636    480.0786    265.0309
   928.1160    480.3623    264.9731
   928.2684    478.0882    263.6510
   928.4208    475.2096    264.0380
   928.5732    472.7474    264.2169
   928.7256    475.4211    263.6525
   928.8780    472.4481    262.4477
   929.0304    472.0316    263.0870
   929.1828    471.1063    262.9833
   929.3352    473.8958    263.2173
   929.4876    481.8019    262.9323
   929.6400    476.0369    264.5534
   929.7924    471.9761    263.6733
   929.9448    481.6970    264.3876
   930.0972    478.3913    265.2116
   930.2496    483.0178    266.1436
   930.4020    484.7906    266.5125
   930.5544    488.9457    266.0816
   930.7068    488.7952    268.0424
   930.8592    487.3238    268.2408
   931.0116    487.7203    268.0389
   931.1640    489.2878    267.5208
   931.3164    489.5457    269.5725
   931.4688    486.3206    270.1852
   931.6212    495.7108    269.2255
   931.7736    488.2050    268.8527
   931.9260    486.8182    267.1284
   932.0784    485.4022    271.5915
   932.2308    485.7508    271.6767
   932.3832    491.5646    268.7424
   932.5356    486.6178    269.1620
   932.6880    490.4248    269.0194
   932.8404    492.7319    269.6337
   932.9928    484.1346    270.9398
   933.1452    483.1967    267.3293
   933.2976    478.3680    267.7791
   933.4500    489.3393    266.4710
   933.6024    495.1099    269.2294
   933.7548    498.3972    272.7476
   933.9072    496.5056    272.3803
   934.0596    496.2027    272.6756
   934.2120    496.7454    274.1340
   934.3644    499.7148    272.5780
   934.5168    498.2508    272.0152
   934.6692    498.8412    274.2691
   934.8216    495.0625    273.3999
   934.9740    497.9442    264.0281
   935.1264    499.6091    261.6191
   935.2788    499.3856    265.2415
   935.4312    503.4269    263.8616
   935.5836    506.8188    268.6712
   935.7360    517.2819    268.1483
   935.8884    520.0632    266.6481
   936.0408    521.1622    280.3568
   936.1932    511.3650    281.1657
   936.3456    516.5762    281.4915
   936.4980    530.7807    280.4287
   936.6504    525.3773    284.3878
   936.8028    531.1779    285.0991
   936.9552    528.7249    284.8172
   937.1076    530.9016    278.3842
   937.2600    525.8623    278.7858
   937.4124    522.2499    276.5628
   937.5648    522.9904    277.2946
   937.7172    524.7096    277.5530
   937.8696    517.8926    268.4881
   938.0220    507.0136    269.7551
   938.1744    509.3388    269.1101
   938.3268    508.7037    269.2654
   938.4792    512.2808    266.9808
   938.6316    511.4176    262.6187
   938.7840    519.0221    260.4691
   938.9364    522.6700    275.0948
   939.0888    524.5212    281.1593
   939.2412    518.3229    279.8939
   939.3936    518.5482    280.6471
   939.5460    517.2697    279.2809
   939.6984    520.0290    289.6580
   939.8508    522.4356    289.9501
   940.0032    524.7549    289.6487
   940.1556    529.6132    289.0398
   940.3080    528.6718    292.9374
   940.4604    521.1674    285.9791
   940.6128    523.5220    285.4258
   940.7652    515.4611    285.0036
   940.9176    516.4395    281.3107
   941.0700    512.8779    277.7132
   941.2224    509.0405    281.7076
   941.3748    511.4899    281.7919
   941.5272    519.6218    280.8289
   941.6796    515.9830    282.8050
   941.8320    515.3014    283.4402
   941.9844    514.9833    283.9625
   942.1368    506.9196    282.2808
   942.2892    513.4787    277.1174
   942.4416    511.5287    281.6161
   942.5940    512.6084    280.1820
   942.7464    521.2539    280.7015
   942.8988    525.1150    279.2539
   943.0512    529.7953    284.0279
   943.2036    533.9814    284.0560
   943.3560    540.9636    283.3540
   943.5084    549.4977    291.6321
   943.6608    541.9678    290.1782
   943.8132    543.9899    290.1377
   943.9656    550.1295    295.9904
   944.1180    542.4274    285.9048
   944.2704    545.9806    285.1252
   944.4228    547.2843    285.0492
   944.5752    543.9065    285.8541
   944.7276    543.9194    288.8030
   944.8800    555.5289    289.8861
   945.0324    554.2851    290.6503
   945.1848    559.2176    290.5220
   945.3372    565.7621    288.8912
   945.4896    567.8474    290.5216
   945.6420    564.2532    290.7087
   945.7944    570.6959    290.9160
   945.9468    564.5756    293.9213
   946.0992    562.7214    294.9890
   946.2516    566.9742    294.9211
   946.4040    566.4569    295.3951
   946.5564    556.5371    294.8387
   946.7088    554.8144    295.7955
   946.8612    567.2332    297.7106
   947.0136    569.5999    297.7071
   947.1660    580.0266    299.5596
   947.3184    577.5371    301.1370
   947.4708    573.9645    301.1858
   947.6232    567.3901    301.1887
   947.7756    586.3426    300.1830
   947.9280    569.9249    296.8628
   948.0804    534.0356    289.9862
   948.2328    520.1039    289.4174
   948.3852    520.2447    289.1991
   948.5376    509.1078    281.2281
   948.6900    507.6122    273.9830
   948.8424    505.0221    276.2554
   948.9948    505.0819    275.9482
   949.1472    506.2044    278.4286
   949.2996    514.3613    274.3505
   949.4520    510.4419    275.1240
   949.6044    507.0053    275.1644
   949.7568    504.1042    276.6513
   949.9092    516.6311    270.8991
   950.0616    508.1179    273.2594
   950.2140    503.7340    273.4359
   950.3664    497.1636    273.9168
   950.5188    509.7107    271.4330
   950.6712    513.8343    274.3479
   950.8236    508.9162    274.9566
   950.9760    512.1707    273.4960
   951.1284    519.2299    272.1023
   951.2808    519.8135    274.9819
   951.4332    511.8449    273.4631
   951.5856    512.7396    273.8512
   951.7380    511.0593    277.7884
   951.8904    518.1627    279.4912
   952.0428    522.7392    279.1186
   952.1952    524.5394    278.6457
   952.3476    526.5258    281.0351
   952.5000    542.2415    289.8299
   952.6524    549.2188    291.2874
   952.8048    560.0069    292.7845
   952.9572    572.4363    296.1043
   953.1096    572.9487    312.0042
   953.2620    579.7527    316.0429
   953.4144    588.8788    316.0018
   953.5668    591.8395    317.9636
   953.7192    582.1625    307.9706
   953.8716    579.1024    306.1266
   954.0240    585.8881    306.3938
   954.1764    581.6268    302.2667
   954.3288    565.3447    297.4058
   954.4812    556.4664    296.3656
   954.6336    561.2494    296.7668
   954.7860    562.1691    296.6542
   954.9384    552.0793    296.1956
   955.0908    546.8265    292.8495
   955.2432    547.0712    293.2595
   955.3956    545.1428    291.5085
   955.5480    530.0033    284.5981
   955.7004    519.3596    282.7495
   955.8528    500.6955    280.9979
   956.0052    495.5540    279.4505
   956.1576    458.1728    263.5871
   956.3100    448.8620    253.0575
   956.4624    409.7478    253.5254
   956.6148    408.8775    253.6341
   956.7672    432.0825    250.6283
