~Version Information
 VERS. 2.0                             : CWLS Log ASCII Standard - Version 2.0
 WRAP. NO                              : One line per depth step
 PROG.                                 : SeisWare LAS Export
#
~Well Information
#MNEM.UNIT     DATA                    : DESCRIPTION
#----.----     ---------               : -----------------
 STRT.M         515.1120               : Start Depth
 STOP.M        2577.3888               : End Depth
 STEP.M           0.1524               : Depth Increment
 NULL.          -999.250               : Null Value
 WELL.         ECA HZ 102 WEMBLEY 16-27-72-9        : Common Well Name
 UWI .         100162707209W600        : Unique Well ID
 FLD .         WEMBLEY                 : Field Name
 PROV.         ALTA                    : Province / State
#
~Parameter Information
#MNEM.UNIT     VALUE                   : DESCRIPTION
#----.----     ---------               : -----------------
 EREF.M         789.0000               : Elevation of Depth Reference
 DREF.         KB                      : Depth Reference
 EGL .M         782.6000               : Ground Level Elevation
 EKB .M         789.0000               : Kelly Bushing Elevation
#
~Other Information
# SeisWare LAS Export
#
~Curve Information
#MNEM.UNIT        API CODE             : CURVE DESCRIPTION
#----.----        ---------            : -----------------
 DEPT.M                                : Depth
 DTS_EXPORT_REV.us/m                             : 
 DT_EXPORT_REV.us/m                             : 
#
~A     DEPTDTS_EXPORT_REVDT_EXPORT_REV
   515.1120    336.0465    323.7272
   515.2644    318.9568    323.3011
   515.4168    347.6721    323.2553
   515.5692    316.3631    322.1365
   515.7216    332.2001    321.5142
   515.8740    318.2968    319.9928
   516.0264    321.7120    319.2165
   516.1788    331.9854    319.2586
   516.3312    324.6621    320.8233
   516.4836    347.6562    319.8016
   516.6360    323.9624    320.8203
   516.7884    338.8608    319.9291
   516.9408    330.8061    317.4564
   517.0932    329.4927    316.7541
   517.2456    329.9897    317.5270
   517.3980    324.7752    316.9275
   517.5504    319.5607    317.2650
   517.7028    281.0963    317.7153
   517.8552    315.8874    320.8743
   518.0076    323.3946    323.4979
   518.1600    320.6427    323.0313
   518.3124    317.8908    322.2713
   518.4648    317.8908    325.8752
   518.6172    312.9290    326.7801
   518.7696    338.8694    323.9418
   518.9220    351.3799    326.4666
   519.0744    309.7226    325.8820
   519.2268    322.1269    324.0054
   519.3792    312.8459    322.9223
   519.5316    336.2900    321.9933
   519.6840    449.5168    321.2564
   519.8364    562.7437    321.3033
   519.9888    675.9705    324.8850
   520.1412    683.1514    326.9647
   520.2936    690.3322    328.8515
   520.4460    697.5129    329.8860
   520.5984    693.7363    332.1586
   520.7508    689.9597    326.2673
   520.9032    686.1831    335.8308
   521.0556    682.4064    334.4085
   521.2080    678.6298    337.9155
   521.3604    680.6975    336.4394
   521.5128    682.7651    334.6633
   521.6652    684.8327    335.6022
   521.8176    556.8829    335.6364
   521.9700    428.9330    338.4008
   522.1224    300.9832    343.9822
   522.2748    275.5631    343.8093
   522.4272    274.5557    339.1639
   522.5796    273.5483    339.5688
   522.7320    280.6975    345.3378
   522.8844    287.8467    351.1068
   523.0368    294.9959    356.8759
   523.1892    302.0601    361.9763
   523.3416    333.8631    363.7463
   523.4940    280.2436    359.7194
   523.6464    308.3201    357.4957
   523.7988    321.4433    356.7889
   523.9512    320.2956    353.2850
   524.1036    297.6557    343.6642
   524.2560    322.0993    341.8868
   524.4084    376.1765    342.4995
   524.5608    332.9991    345.4099
   524.7132    333.8912    344.6981
   524.8656    357.1303    334.8860
   525.0180    362.3147    335.2804
   525.1704    308.4865    331.9485
   525.3228    298.3261    326.1917
   525.4752    375.1760    324.9244
   525.6276    367.7564    324.2167
   525.7800    331.9504    324.9142
   525.9324    359.3658    327.1754
   526.0848    320.0979    331.0629
   526.2372    292.0782    329.1967
   526.3896    305.9041    329.3829
   526.5420    325.8985    332.3292
   526.6944    394.4889    332.5145
   526.8468    416.3418    333.5332
   526.9992    438.1947    335.2918
   527.1516    375.1514    334.7700
   527.3040    296.4842    335.1349
   527.4564    306.5735    335.1742
   527.6088    296.3560    333.8134
   527.7612    378.3986    330.1805
   527.9136    347.4682    329.2657
   528.0660    362.3727    328.7341
   528.2184    418.1060    327.3826
   528.3708    329.5358    327.0271
   528.5232    325.6885    326.3678
   528.6756    280.9633    327.0167
   528.8280    293.8546    328.3892
   528.9804    337.3338    327.8335
   529.1328    378.5171    326.8400
   529.2852    457.3546    325.8690
   529.4376    408.4406    323.9642
   529.5900    354.1929    324.1226
   529.7424    372.5529    323.7076
   529.8948    341.0374    322.7716
   530.0472    309.3434    325.6272
   530.1996    313.2660    322.0740
   530.3520    368.0802    321.1536
   530.5044    385.9094    319.6551
   530.6568    343.8302    320.8456
   530.8092    288.9840    323.9127
   530.9616    331.0013    325.1055
   531.1140    317.7550    330.6078
   531.2664    355.7257    328.4434
   531.4188    366.3799    331.5153
   531.5712    400.7793    334.6590
   531.7236    435.1788    325.3783
   531.8760    469.5782    325.1555
   532.0284    503.9776    322.3306
   532.1808    461.6572    322.1963
   532.3332    669.6332    323.2849
   532.4856    679.3829    322.8276
   532.6380    335.2257    326.7964
   532.7904    272.4849    325.5231
   532.9428    293.1385    331.6734
   533.0952    313.7921    329.2802
   533.2476    334.4457    328.8527
   533.4000    355.0993    330.7397
   533.5524    381.1191    331.6931
   533.7048    393.9854    328.4548
   533.8572    362.6573    325.0345
   534.0096    341.1539    321.7561
   534.1620    319.6505    329.8786
   534.3144    326.4174    329.8570
   534.4668    428.5138    327.4876
   534.6192    419.1951    327.0048
   534.7716    397.9940    327.0571
   534.9240    376.7930    328.0858
   535.0764    348.0902    325.4439
   535.2288    511.9327    321.7743
   535.3812    675.7751    319.6532
   535.5336    654.3210    317.7273
   535.6860    637.6510    314.6632
   535.8384    637.1566    314.5336
   535.9908    633.5233    310.3947
   536.1432    622.5463    297.2664
   536.2956    626.2668    310.6198
   536.4480    639.4608    313.1181
   536.6004    619.7287    308.3515
   536.7528    612.2452    318.7690
   536.9052    628.6592    319.6203
   537.0576    640.2194    316.6437
   537.2100    604.8327    320.5767
   537.3624    604.8327    314.0568
   537.5148    604.8327    312.7480
   537.6672    605.2829    312.5359
   537.8196    604.3362    310.4973
   537.9720    603.3895    318.6503
   538.1244    602.4429    318.3421
   538.2768    601.4962    320.6397
   538.4292    600.5496    320.3952
   538.5816    599.6028    319.7608
   538.7340    598.6562    316.6727
   538.8864    597.7095    316.5227
   539.0388    596.7628    316.1403
   539.1912    595.8162    317.3541
   539.3436    594.8695    318.1248
   539.4960    593.9229    325.1832
   539.6484    592.9761    325.0872
   539.8008    592.0295    324.3841
   539.9532    591.0828    324.7498
   540.1056    590.1362    322.2777
   540.2580    589.1895    318.4943
   540.4104    588.2428    312.7912
   540.5628    591.4391    305.1901
   540.7152    569.2791    301.0166
   540.8676    555.1951    298.8585
   541.0200    544.3770    296.0029
   541.1724    556.9924    295.9092
   541.3248    552.6786    296.3755
   541.4772    575.5166    297.3462
   541.6296    574.6706    299.2207
   541.7820    573.8246    300.5025
   541.9344    572.9786    302.8205
   542.0868    572.1326    308.1458
   542.2392    571.2866    309.6400
   542.3916    570.4407    309.1693
   542.5440    569.5947    313.5482
   542.6964    568.7487    310.5373
   542.8488    567.9027    312.5139
   543.0012    567.0567    316.0358
   543.1536    566.2107    312.3315
   543.3060    565.3647    314.2861
   543.4584    564.5187    317.6133
   543.6108    563.6727    324.1458
   543.7632    562.8267    321.1455
   543.9156    561.9808    325.7313
   544.0680    561.1348    324.1192
   544.2204    560.2888    325.6124
   544.3728    559.4427    325.5359
   544.5252    558.5968    325.4129
   544.6776    557.7508    322.5702
   544.8300    556.9048    315.8109
   544.9824    556.0588    318.8092
   545.1348    555.2128    316.2177
   545.2872    554.3668    324.6585
   545.4396    553.5208    333.8445
   545.5920    552.6749    334.3911
   545.7444    551.8289    327.3853
   545.8968    550.9828    333.2905
   546.0492    550.1369    336.6010
   546.2016    549.2909    337.1859
   546.3540    548.4449    336.8713
   546.5064    547.5989    334.2928
   546.6588    546.7529    330.7825
   546.8112    545.9069    328.2585
   546.9636    545.0609    326.4968
   547.1160    544.2150    322.9553
   547.2684    543.3690    318.4790
   547.4208    542.5229    317.7539
   547.5732    541.6770    315.0037
   547.7256    540.8310    314.4101
   547.8780    539.9850    313.6970
   548.0304    539.1390    314.1771
   548.1828    538.2930    313.1823
   548.3352    537.4470    312.8864
   548.4876    536.6010    311.2472
   548.6400    535.7551    310.7390
   548.7924    534.9091    312.1092
   548.9448    534.0630    312.7715
