~Version Information
 VERS. 2.0                             : CWLS Log ASCII Standard - Version 2.0
 WRAP. NO                              : One line per depth step
 PROG.                                 : SeisWare LAS Export
#
~Well Information
#MNEM.UNIT     DATA                    : DESCRIPTION
#----.----     ---------               : -----------------
 STRT.M         515.1120               : Start Depth
 STOP.M        2577.3888               : End Depth
 STEP.M           0.1524               : Depth Increment
 NULL.          -999.250               : Null Value
 WELL.         ECA HZ 102 WEMBLEY 16-27-72-9        : Common Well Name
 UWI .         100162707209W600        : Unique Well ID
 FLD .         WEMBLEY                 : Field Name
 PROV.         ALTA                    : Province / State
#
~Parameter Information
#MNEM.UNIT     VALUE                   : DESCRIPTION
#----.----     ---------               : -----------------
 EREF.M         789.0000               : Elevation of Depth Reference
 DREF.         KB                      : Depth Reference
 EGL .M         782.6000               : Ground Level Elevation
 EKB .M         789.0000               : Kelly Bushing Elevation
#
~Other Information
# SeisWare LAS Export
#
~Curve Information
#MNEM.UNIT        API CODE             : CURVE DESCRIPTION
#----.----        ---------            : -----------------
 DEPT.M                                : Depth
 DTS_EXPORT_REV.us/m                             : 
 DT_EXPORT_REV.us/m                             : 
#
~A     DEPTDTS_EXPORT_REVDT_EXPORT_REV
# ...
  2554.2240    348.0612    211.8429
  2554.3764    347.0208    211.1102
  2554.5288    346.3385    210.5023
  2554.6812    346.3521    210.6665
  2554.8336    346.8564    209.8169
  2554.9860    347.5833    208.5795
  2555.1384    345.6225    208.7432
  2555.2908    344.5481    207.0862
  2555.4432    343.9918    206.5293
  2555.5956    344.0169    206.4417
  2555.7480    343.1419    205.4789
  2555.9004    341.8391    205.1736
  2556.0528    340.2925    204.7549
  2556.2052    339.2174    204.1600
  2556.3576    338.0827    203.5593
  2556.5100    337.9531    203.6773
  2556.6624    337.5101    203.2722
  2556.8148    337.5858    203.1702
  2556.9672    337.4856    203.5541
  2557.1196    337.0495    203.6198
  2557.2720    337.0813    204.2266
  2557.4244    337.2250    204.7471
  2557.5768    337.1661    205.4693
  2557.7292    337.1893    205.4424
  2557.8816    337.0702    205.8365
  2558.0340    337.0692    205.7047
  2558.1864    336.5987    205.7077
  2558.3388    336.7319    205.7651
  2558.4912    335.6035    205.3643
  2558.6436    334.9373    205.2513
  2558.7960    335.0727    205.3798
  2558.9484    339.5259    206.0181
  2559.1008    339.9784    206.1878
  2559.2532    339.9759    205.9503
  2559.4056    340.4423    206.2800
  2559.5580    340.9352    207.1942
  2559.7104    341.3394    207.2925
  2559.8628    340.5508    207.2646
  2560.0152    340.1069    206.9184
  2560.1676    340.5320    206.8756
  2560.3200    339.8104    206.2666
  2560.4724    336.4708    205.6547
  2560.6248    335.7363    205.5985
  2560.7772    335.1272    205.2021
  2560.9296    334.8906    205.0247
  2561.0820    334.8032    204.8260
  2561.2344    334.8958    205.0796
  2561.3868    335.1476    205.1478
  2561.5392    337.9861    205.7976
  2561.6916    339.2220    206.6862
  2561.8440    339.3434    206.3956
  2561.9964    339.1872    205.6750
  2562.1488    339.3023    205.4470
  2562.3012    339.2322    205.4334
  2562.4536    339.1210    205.3964
  2562.6060    338.9772    205.2552
  2562.7584    338.7359    205.0519
  2562.9108    335.8697    204.7591
  2563.0632    335.4815    204.0765
  2563.2156    335.5941    203.5413
  2563.3680    335.8542    204.2289
  2563.5204    335.6554    203.3806
  2563.6728    335.6530    203.2051
  2563.8252    336.2508    203.5930
  2563.9776    339.8432    203.9271
  2564.1300    341.6732    204.9953
  2564.2824    341.6559    206.0237
  2564.4348    344.7012    208.4783
  2564.5872    345.4380    209.2975
  2564.7396    345.2848    209.4515
  2564.8920    344.3132    208.0066
  2565.0444    344.2055    206.4125
  2565.1968    344.3660    206.2479
  2565.3492    342.0514    204.3301
  2565.5016    341.7439    206.3313
  2565.6540    341.8620    203.8531
  2565.8064    341.3940    203.8441
  2565.9588    338.1650    202.8912
  2566.1112    338.6286    203.5327
  2566.2636    338.8793    204.0275
  2566.4160    340.4914    204.4764
  2566.5684    341.4811    205.2458
  2566.7208    339.9739    205.1402
  2566.8732    340.6116    205.5909
  2567.0256    340.7471    205.8079
  2567.1780    341.0444    204.4093
  2567.3304    341.2999    205.1107
  2567.4828    341.3985    205.0410
  2567.6352    341.1020    204.2877
  2567.7876    340.8707    204.3724
  2567.9400    340.2598    203.6602
  2568.0924    339.9026    203.6667
  2568.2448    340.1080    203.9295
  2568.3972    341.4757    204.1173
  2568.5496    341.2404    204.8398
  2568.7020    342.8694    205.9885
  2568.8544    342.9535    206.4310
  2569.0068    342.7773    205.8214
  2569.1592    341.7611    205.1376
  2569.3116    340.7728    204.7112
  2569.4640    338.5786    202.5484
  2569.6164    337.2764    201.8286
  2569.7688    337.3056    202.1844
  2569.9212    338.1418    203.2120
  2570.0736    340.2548    204.7737
  2570.2260    341.2169    205.6983
  2570.3784    341.5557    206.2357
  2570.5308    341.6567    207.0914
  2570.6832    341.3165    208.3695
  2570.8356    341.4927    208.0454
  2570.9880    341.9960    208.0855
  2571.1404    341.5557    207.7805
  2571.2928    341.5595    207.6019
  2571.4452    341.5659    207.3712
  2571.5976    341.5842    207.3987
  2571.7500    341.5745    207.4782
  2571.9024    341.5788    207.2751
  2572.0548    341.5767    207.5106
  2572.2072    341.5919    207.4007
  2572.3596    341.5922    207.6452
  2572.5120    341.6028    207.1736
  2572.6644    341.6100    207.5921
  2572.8168    341.6050    207.7798
  2572.9692    341.5969    207.7332
  2573.1216    341.5929    207.9090
  2573.2740    341.5457    208.0568
  2573.4264    341.5298    208.1345
  2573.5788    341.5287    208.4530
  2573.7312    341.5418    208.4917
  2573.8836    341.5240    208.7347
  2574.0360    341.5528    208.8472
  2574.1884    341.5562    208.8991
  2574.3408    341.5223    208.9549
  2574.4932    341.5289    208.9853
  2574.6456    341.5309    209.1138
  2574.7980    341.5516    208.8078
  2574.9504    341.6027    209.0127
  2575.1028    341.6436    209.1832
  2575.2552    341.6561    209.3511
  2575.4076    341.6535    209.3013
  2575.5600    341.6463    209.1558
  2575.7124    341.6402    209.1965
  2575.8648    341.6416    209.2001
  2576.0172    341.6407    209.2257
  2576.1696    341.6413    209.3226
  2576.3220    341.6420    209.1861
  2576.4744    341.6397    209.4126
  2576.6268    341.6454    209.2079
  2576.7792    341.6447    209.2907
  2576.9316    341.6453    209.2360
  2577.0840    341.7429    209.4328
  2577.2364    341.7315    209.6073
  2577.3888    341.7280    209.3432
