~Version Information
 VERS. 2.0                             : CWLS Log ASCII Standard - Version 2.0
 WRAP. NO                              : One line per depth step
 PROG.                                 : SeisWare LAS Export
#
~Well Information
#MNEM.UNIT     DATA                    : DESCRIPTION
#----.----     ---------               : -----------------
 STRT.M         515.1120               : Start Depth
 STOP.M        2577.3888               : End Depth
 STEP.M           0.1524               : Depth Increment
 NULL.          -999.250               : Null Value
 WELL.         ECA HZ 102 WEMBLEY 16-27-72-9        : Common Well Name
 UWI .         100162707209W600        : Unique Well ID
 FLD .         WEMBLEY                 : Field Name
 PROV.         ALTA                    : Province / State
#
~Parameter Information
#MNEM.UNIT     VALUE                   : DESCRIPTION
#----.----     ---------               : -----------------
 EREF.M         789.0000               : Elevation of Depth Reference
 DREF.         KB                      : Depth Reference
 EGL .M         782.6000               : Ground Level Elevation
 EKB .M         789.0000               : Kelly Bushing Elevation
#
~Other Information
# SeisWare LAS Export
#
~Curve Information
#MNEM.UNIT        API CODE             : CURVE DESCRIPTION
#----.----        ---------            : -----------------
 DEPT.M                                : Depth
 DTS_EXPORT_REV.us/m                             : 
 DT_EXPORT_REV.us/m                             : 
#
~A     DEPTDTS_EXPORT_REVDT_EXPORT_REV
# ...
  2418.2832    315.2742    189.2456
  2418.4356    312.8158    188.0802
  2418.5880    313.5495    188.8805
  2418.7404    313.0547    189.9509
  2418.8928    314.5035    191.9795
  2419.0452    315.6337    191.3529
  2419.1976    319.9398    195.5116
  2419.3500    321.2893    196.1608
  2419.5024    323.5815    197.6529
  2419.6548    323.9179    196.4302
  2419.8072    324.1151    197.1586
  2419.9596    324.9290    196.9353
  2420.1120    326.2882    196.6494
  2420.2644    326.8806    196.9792
  2420.4168    329.6828    199.3848
  2420.5692    331.7074    198.2078
  2420.7216    332.9504    199.0071
  2420.8740    334.1127    200.3631
  2421.0264    333.1754    200.4395
  2421.1788    329.2377    197.1997
  2421.3312    322.1843    191.4888
  2421.4836    319.5758    190.4756
  2421.6360    313.5797    187.3199
  2421.7884    310.1341    185.7876
  2421.9408    309.0155    184.9888
  2422.0932    310.6475    185.4640
  2422.2456    314.5296    188.4867
  2422.3980    316.1163    191.4213
  2422.5504    319.5397    193.1037
  2422.7028    321.8489    192.2435
  2422.8552    328.3319    197.7171
  2423.0076    330.6563    200.1053
  2423.1600    330.9203    200.0226
  2423.3124    330.7713    198.6394
  2423.4648    330.2599    198.1851
  2423.6172    330.7675    198.8884
  2423.7696    330.3190    198.6430
  2423.9220    329.9100    197.9937
  2424.0744    329.6545    197.1198
  2424.2268    328.7363    198.2632
  2424.3792    328.3140    196.2771
  2424.5316    326.8520    196.6926
  2424.6840    322.0669    193.0474
  2424.8364    320.7042    193.0974
  2424.9888    315.6289    189.4508
  2425.1412    312.9445    188.8001
  2425.2936    312.0529    187.8361
  2425.4460    312.9358    188.1454
  2425.5984    316.4974    191.1367
  2425.7508    316.9144    191.0403
  2425.9032    313.5818    188.9311
  2426.0556    312.8334    189.2091
  2426.2080    309.7329    187.6495
  2426.3604    308.1523    186.9096
  2426.5128    310.1302    188.8761
  2426.6652    312.2659    190.1968
  2426.8176    320.7797    197.1699
  2426.9700    322.4438    197.9472
  2427.1224    323.6543    196.7032
  2427.2748    322.5447    196.7452
  2427.4272    323.1326    196.3012
  2427.5796    322.4688    196.1814
  2427.7320    322.5173    195.9642
  2427.8844    324.3637    196.9206
  2428.0368    327.1165    200.0160
  2428.1892    328.2648    199.0243
  2428.3416    325.3535    197.2440
  2428.4940    324.7376    197.5354
  2428.6464    323.8199    195.9911
  2428.7988    323.8517    195.0171
  2428.9512    320.7826    193.9548
  2429.1036    319.3862    193.5730
  2429.2560    317.5796    192.7385
  2429.4084    315.3954    191.8240
  2429.5608    315.6682    190.3641
  2429.7132    317.2097    192.2361
  2429.8656    318.4699    193.5938
  2430.0180    320.9521    193.9057
  2430.1704    321.5273    193.3813
  2430.3228    320.7502    192.2635
  2430.4752    318.8632    190.7471
  2430.6276    317.8143    190.1683
  2430.7800    318.4827    191.0492
  2430.9324    318.8139    190.7799
  2431.0848    320.0251    192.7390
  2431.2372    322.4387    194.1587
  2431.3896    323.5279    193.9211
  2431.5420    324.8377    196.7439
  2431.6944    324.1349    197.2940
  2431.8468    323.7946    196.9414
  2431.9992    323.8712    196.5787
  2432.1516    323.3374    195.8437
  2432.3040    322.3417    195.1484
  2432.4564    320.5432    194.0956
  2432.6088    321.2415    193.3754
  2432.7612    319.2734    194.3731
  2432.9136    319.0478    193.4869
  2433.0660    322.6216    194.5726
  2433.2184    328.5808    197.0761
  2433.3708    324.7697    197.3142
  2433.5232    325.6020    197.3574
  2433.6756    325.9529    197.1584
  2433.8280    324.9003    195.9466
  2433.9804    322.1186    194.5923
  2434.1328    317.7199    192.4004
  2434.2852    315.8021    192.0684
  2434.4376    314.4579    192.6694
  2434.5900    312.4742    192.0199
  2434.7424    310.1063    189.5179
  2434.8948    308.9276    188.4907
  2435.0472    308.0594    188.2632
  2435.1996    308.6950    188.4471
  2435.3520    311.8014    190.1816
  2435.5044    315.1854    192.5643
  2435.6568    324.1289    199.3270
  2435.8092    329.0355    203.1737
  2435.9616    330.9994    202.6456
  2436.1140    332.9096    204.4781
  2436.2664    333.5820    205.2040
  2436.4188    333.1209    203.9975
  2436.5712    331.9146    203.5730
  2436.7236    331.1376    203.3494
  2436.8760    328.8969    201.7607
  2437.0284    328.5612    202.4340
  2437.1808    328.7144    202.2500
  2437.3332    329.3575    202.8739
  2437.4856    329.7081    200.3307
  2437.6380    329.2188    200.4861
  2437.7904    327.0536    198.1912
  2437.9428    325.3901    196.1297
  2438.0952    325.3018    196.3182
  2438.2476    324.7800    195.7285
  2438.4000    325.6187    197.3523
  2438.5524    326.1065    197.2458
  2438.7048    327.6079    198.4168
  2438.8572    327.1903    197.3752
  2439.0096    326.5637    197.8133
  2439.1620    324.2489    195.7574
  2439.3144    322.4278    194.2940
  2439.4668    322.0320    194.4751
  2439.6192    321.9269    194.6992
  2439.7716    322.2469    195.5407
  2439.9240    322.2567    195.2027
  2440.0764    322.7275    196.3680
  2440.2288    322.4919    195.6010
  2440.3812    322.4528    196.7803
  2440.5336    321.5597    196.0159
  2440.6860    321.6631    196.7715
  2440.8384    321.7271    197.1787
  2440.9908    322.3357    198.0302
  2441.1432    321.1158    197.0482
  2441.2956    321.1730    196.8783
  2441.4480    320.2702    195.9741
  2441.6004    321.0246    197.8199
  2441.7528    323.2641    196.5651
  2441.9052    322.2305    198.3303
  2442.0576    324.8735    197.7290
  2442.2100    326.1941    201.2849
  2442.3624    328.4362    201.8486
  2442.5148    328.3657    203.5083
  2442.6672    327.9067    201.9435
  2442.8196    326.9385    200.2126
  2442.9720    326.6188    200.1130
  2443.1244    324.9273    200.0721
  2443.2768    327.2707    200.8233
  2443.4292    328.7750    202.6988
  2443.5816    331.7917    204.5606
  2443.7340    334.8122    206.9528
  2443.8864    335.5733    206.8109
  2444.0388    336.3789    207.2476
  2444.1912    334.8117    205.5045
  2444.3436    334.1326    204.9724
  2444.4960    331.5553    203.5996
  2444.6484    330.5532    202.0817
  2444.8008    330.7485    202.4886
  2444.9532    330.2603    201.1792
  2445.1056    330.3871    199.9096
  2445.2580    329.9624    199.1499
  2445.4104    329.1880    199.8569
  2445.5628    327.2808    198.9387
  2445.7152    327.6416    198.8674
  2445.8676    329.2238    200.3403
  2446.0200    330.6671    200.2353
  2446.1724    330.6352    200.7142
  2446.3248    331.1088    199.8419
  2446.4772    331.6115    199.8724
  2446.6296    331.2610    200.2867
  2446.7820    328.2471    196.9548
  2446.9344    325.4458    195.7569
  2447.0868    324.5092    194.3875
  2447.2392    322.7649    194.0014
  2447.3916    322.7408    194.4327
  2447.5440    322.1421    195.9942
  2447.6964    323.7288    197.4119
  2447.8488    324.5423    198.5549
  2448.0012    325.8059    198.7541
  2448.1536    326.0848    198.9268
  2448.3060    325.1913    197.4337
  2448.4584    323.4895    197.4199
  2448.6108    320.0872    193.9306
  2448.7632    317.1244    193.6284
  2448.9156    316.3716    192.3019
  2449.0680    316.9097    192.9297
  2449.2204    316.9421    192.3649
  2449.3728    317.8690    193.8470
  2449.5252    318.5743    193.3105
  2449.6776    318.6642    194.1333
  2449.8300    318.3974    192.7700
  2449.9824    318.8619    192.7731
  2450.1348    319.2287    193.7654
  2450.2872    320.0593    193.3391
  2450.4396    321.4833    193.3119
  2450.5920    322.0305    194.4288
  2450.7444    323.4451    195.5817
  2450.8968    323.2524    195.7623
  2451.0492    323.2372    195.6708
  2451.2016    321.8646    194.9561
  2451.3540    321.8590    195.4678
  2451.5064    318.9941    195.4304
  2451.6588    318.1950    194.0298
  2451.8112    318.9833    195.8000
  2451.9636    323.1925    195.9948
  2452.1160    324.9556    199.2821
