~Version Information
 VERS. 2.0                             : CWLS Log ASCII Standard - Version 2.0
 WRAP. NO                              : One line per depth step
 PROG.                                 : SeisWare LAS Export
#
~Well Information
#MNEM.UNIT     DATA                    : DESCRIPTION
#----.----     ---------               : -----------------
 STRT.M         515.1120               : Start Depth
 STOP.M        2577.3888               : End Depth
 STEP.M           0.1524               : Depth Increment
 NULL.          -999.250               : Null Value
 WELL.         ECA HZ 102 WEMBLEY 16-27-72-9        : Common Well Name
 UWI .         100162707209W600        : Unique Well ID
 FLD .         WEMBLEY                 : Field Name
 PROV.         ALTA                    : Province / State
#
~Parameter Information
#MNEM.UNIT     VALUE                   : DESCRIPTION
#----.----     ---------               : -----------------
 EREF.M         789.0000               : Elevation of Depth Reference
 DREF.         KB                      : Depth Reference
 EGL .M         782.6000               : Ground Level Elevation
 EKB .M         789.0000               : Kelly Bushing Elevation
#
~Other Information
# SeisWare LAS Export
#
~Curve Information
#MNEM.UNIT        API CODE             : CURVE DESCRIPTION
#----.----        ---------            : -----------------
 DEPT.M                                : Depth
 DTS_EXPORT_REV.us/m                             : 
 DT_EXPORT_REV.us/m                             : 
#
~A     DEPTDTS_EXPORT_REVDT_EXPORT_REV
# ...
   651.0528    572.6987    295.8013
   651.2052    584.7811    298.3486
   651.3576    566.1862    298.7377
   651.5100    584.8178    300.6466
   651.6624    589.4733    302.8977
   651.8148    582.0998    306.2798
   651.9672    582.3134    304.5305
   652.1196    600.9976    308.7422
   652.2720    601.2430    309.0466
   652.4244    601.4885    307.4567
   652.5768    601.7338    306.2339
   652.7292    601.2107    301.3683
   652.8816    606.1900    300.6864
   653.0340    599.4269    300.3773
   653.1864    600.3021    300.9048
   653.3388    601.1772    304.5721
   653.4912    602.0523    303.4201
   653.6436    602.9274    302.5807
   653.7960    603.8026    304.3595
   653.9484    604.6776    307.9464
   654.1008    605.7014    306.3446
   654.2532    605.6125    303.7710
   654.4056    604.3731    318.9173
   654.5580    603.1336    316.1846
   654.7104    601.8942    318.7469
   654.8628    600.6548    295.0081
   655.0152    593.2376    296.8148
   655.1676    598.5254    295.3328
   655.3200    603.8132    293.4812
   655.4724    579.5729    304.9521
   655.6248    577.5583    284.2560
   655.7772    577.3966    289.8506
   655.9296    592.2944    292.4543
   656.0820    580.2852    290.9000
   656.2344    583.0626    303.2398
   656.3868    594.4940    302.5269
   656.5392    594.1686    296.8018
   656.6916    577.9959    292.9380
   656.8440    567.1838    293.1897
   656.9964    555.5048    288.6448
   657.1488    552.4481    288.7042
   657.3012    533.1985    288.6402
   657.4536    531.0870    289.0947
   657.6060    575.6865    296.0401
   657.7584    563.3618    292.1701
   657.9108    583.7154    294.3104
   658.0632    588.8105    305.0906
   658.2156    591.2764    300.8535
   658.3680    594.5485    304.4370
   658.5204    600.1346    299.5581
   658.6728    600.8553    306.4894
   658.8252    595.3472    303.0412
   658.9776    593.5969    310.8853
   659.1300    588.2379    305.2757
   659.2824    582.8788    308.2243
   659.4348    582.9605    306.8560
   659.5872    587.0085    304.4285
   659.7396    593.3151    298.7729
   659.8920    593.0848    304.0583
   660.0444    593.0368    315.6203
   660.1968    594.4277    315.4023
   660.3492    604.7646    314.6676
   660.5016    596.3875    309.9834
   660.6540    600.4059    305.2786
   660.8064    584.1514    303.2828
   660.9588    588.1741    304.1749
   661.1112    584.4791    303.0558
   661.2636    576.3428    302.0794
   661.4160    594.6981    294.7495
   661.5684    600.5342    306.2823
   661.7208    603.6794    295.7019
   661.8732    604.0508    293.4503
   662.0256    604.4221    304.3984
   662.1780    604.7934    298.9288
   662.3304    605.1647    293.2805
   662.4828    605.5359    295.3621
   662.6352    599.0011    298.5390
   662.7876    570.6926    296.7739
   662.9400    569.4186    295.3619
   663.0924    571.7813    298.4468
   663.2448    564.3098    299.3555
   663.3972    582.6030    305.1475
   663.5496    582.5552    306.8369
   663.7020    583.8511    308.2096
   663.8544    585.6679    308.5159
   664.0068    583.4978    307.3449
   664.1592    585.9866    299.0053
   664.3116    578.7751    301.8624
   664.4640    568.0042    292.9212
   664.6164    553.2690    279.9916
   664.7688    566.4937    290.7877
   664.9212    560.5975    287.0317
   665.0736    563.8296    291.1791
   665.2260    569.9802    294.0519
   665.3784    573.7974    294.8680
   665.5308    584.3365    294.1389
   665.6832    578.0787    292.3702
   665.8356    564.4376    287.3709
   665.9880    565.3875    297.2023
   666.1404    562.4960    287.0482
   666.2928    580.3964    294.2941
   666.4452    584.7492    295.6192
   666.5976    583.4681    298.1794
   666.7500    576.4702    297.8324
   666.9024    569.4436    296.3581
   667.0548    550.4492    293.6018
   667.2072    541.6895    286.2142
   667.3596    530.7539    278.7690
   667.5120    518.9208    276.7911
   667.6644    522.6716    271.1416
   667.8168    519.3119    280.4984
   667.9692    537.8231    278.5486
   668.1216    535.3696    284.7417
   668.2740    530.1902    289.0494
   668.4264    531.0436    289.0839
   668.5788    520.9665    283.2219
   668.7312    529.6934    286.5332
   668.8836    535.0115    284.9505
   669.0360    546.0762    291.3337
   669.1884    547.6371    294.1489
   669.3408    557.0818    294.5241
   669.4932    561.7576    295.5652
   669.6456    568.0712    296.0126
   669.7980    566.8341    290.5132
   669.9504    572.2798    287.6275
   670.1028    572.8707    288.6849
   670.2552    555.0674    290.3686
   670.4076    580.8470    286.7408
   670.5600    561.5381    280.1811
   670.7124    533.4928    283.0103
   670.8648    531.8193    282.7781
   671.0172    531.6439    283.6738
   671.1696    543.3021    300.2178
   671.3220    554.9603    298.3861
   671.4744    561.0778    301.5219
   671.6268    566.6519    302.2026
   671.7792    566.8918    290.6364
   671.9316    567.1317    296.6790
   672.0840    563.5966    292.7382
   672.2364    565.1815    290.0421
   672.3888    566.7664    292.9033
   672.5412    562.6839    292.5026
   672.6936    583.5184    296.7245
   672.8460    579.6155    296.8267
   672.9984    592.8287    298.0776
   673.1508    595.9542    297.6315
   673.3032    593.4421    300.1553
   673.4556    590.9299    303.9169
   673.6080    588.4178    304.5830
   673.7604    585.9056    304.4711
   673.9128    583.3935    304.5443
   674.0652    570.9924    304.2850
   674.2176    557.7120    300.4097
   674.3700    571.9592    297.9375
   674.5224    573.5170    297.8344
   674.6748    571.0585    298.9399
   674.8272    578.8863    297.5493
   674.9796    568.3257    298.0822
   675.1320    577.0231    298.1270
   675.2844    590.5550    294.9943
   675.4368    586.3851    293.7590
   675.5892    576.1254    298.2535
   675.7416    587.1057    302.3492
   675.8940    587.0515    303.4890
   676.0464    584.8168    303.7444
   676.1988    574.0960    301.9466
   676.3512    572.9374    305.0748
   676.5036    560.4055    297.2923
   676.6560    548.5533    285.4625
   676.8084    552.8890    289.0185
   676.9608    545.6545    292.0531
   677.1132    530.9766    282.8647
   677.2656    519.0089    281.3127
   677.4180    520.7516    288.0212
   677.5704    558.5817    294.6996
   677.7228    543.0333    291.5036
   677.8752    547.0934    293.4652
   678.0276    564.0969    295.2748
   678.1800    566.9561    298.5519
   678.3324    572.8875    294.9531
   678.4848    575.9261    295.9568
   678.6372    574.5322    302.4029
   678.7896    583.1780    301.9908
   678.9420    575.8856    306.2598
   679.0944    584.9661    307.7077
   679.2468    601.0355    301.1604
   679.3992    586.2130    299.3792
   679.5516    560.6727    298.2605
   679.7040    548.6542    290.9818
   679.8564    549.0276    287.2824
   680.0088    547.5579    288.2607
   680.1612    557.8575    287.2183
   680.3136    547.8212    289.6016
   680.4660    552.4005    289.8929
   680.6184    554.3766    289.0402
   680.7708    561.8918    294.9442
   680.9232    564.0803    297.3875
   681.0756    588.5103    297.0654
   681.2280    579.8964    296.8484
   681.3804    593.9165    300.0594
   681.5328    597.0387    301.8455
   681.6852    597.6214    304.1431
   681.8376    591.6793    307.7345
   681.9900    591.7319    305.4624
   682.1424    591.7844    303.1074
   682.2948    591.8370    310.6121
   682.4472    591.8896    317.3516
   682.5996    596.4330    317.8542
   682.7520    602.8001    318.0444
   682.9044    602.7836    317.4147
   683.0568    602.7670    317.7322
   683.2092    602.7505    313.4384
   683.3616    602.7339    308.6270
   683.5140    602.7173    306.5865
   683.6664    602.7008    308.5260
   683.8188    602.6843    310.1123
   683.9712    602.6677    317.9069
   684.1236    602.6512    323.0664
   684.2760    602.6346    329.6165
   684.4284    602.6180    321.0869
   684.5808    602.6015    333.6942
   684.7332    602.5850    338.5823
   684.8856    602.5684    325.6797
